timestamp_utc,timestamp_unix,origin_set,gps_healthy,gps_message_type,gps_time_usec,gps_time_boot_ms,gps_fix_type,gps_satellites_visible,gps_hdop,gps_vdop,gps_latitude_deg,gps_longitude_deg,gps_altitude_m,gps_alt_ellipsoid_m,gps_relative_alt_m,gps_speed_mps,gps_speed_knots,gps_speed_kmph,gps_course_deg,gps_heading_deg,gps_vn_mps,gps_ve_mps,gps_vd_mps,gps_hacc_m,gps_vacc_m,gps_vel_acc_mps,gps_hdg_acc_deg,gps_yaw_deg,of_latitude_deg,of_longitude_deg,of_altitude_m,of_heading_deg,imu_ax_mps2,imu_ay_mps2,of_distance_mm,of_distance_m,of_strength,of_precision,of_distance_status,of_status,of_quality,of_ok,of_raw_vx_cms_at_1m,of_raw_vy_cms_at_1m,of_body_vx_mps,of_body_vy_mps,of_vn_mps,of_ve_mps,of_speed_mps
2026-03-17T09:16:26.831670+00:00,1773738986.831320,True,True,GPS_RAW_INT,183599000,183670,4,18,0.64,1.01,12.8878574,77.6430026,945.82,859.221,1.895,0.08,0.15550751999999998,0.28800000000000003,9.27,9.27,-0.01,0.0,0.02,0.469,0.545,0.151,0.0,0.0,12.8878591,77.6430021,1003.7427424776293,330.0183353016622,0.22555295,0.34323275,144,0.144,255,0,1,1,107,True,0,0,-0.0,-0.0,1.544351183700081e-05,7.769879412374058e-06,1.728794620371137e-05
2026-03-17T09:16:26.934702+00:00,1773738986.933822,True,True,GPS_RAW_INT,183599000,183770,4,18,0.64,1.01,12.8878574,77.6430026,945.82,859.221,1.895,0.08,0.15550751999999998,0.28800000000000003,9.27,9.27,-0.02,0.0,0.02,0.469,0.545,0.151,0.0,0.0,12.8878591,77.6430021,1003.5160779092977,330.00951896671654,0.22555295,0.32361945000000003,144,0.144,255,0,1,1,109,True,0,0,-0.0,-0.0,0.016372954306376735,0.007681804313711297,0.01808545687100146
2026-03-17T09:16:27.036682+00:00,1773738987.035531,True,True,GPS_RAW_INT,183799000,183870,4,17,0.69,1.02,12.8878571,77.6430026,945.83,859.231,1.895,0.05,0.0971922,0.18000000000000002,9.27,9.27,-0.02,0.0,0.02,0.469,0.546,0.138,0.0,0.0,12.8878591,77.6430021,1003.7941064487949,330.00337975697835,0.22555295,0.3334261,143,0.143,255,0,1,1,109,True,0,0,-0.0,-0.0,0.0294356862895712,0.014156150579145096,0.03266276513948995
2026-03-17T09:16:27.142041+00:00,1773738987.141913,True,True,GPS_RAW_INT,183799000,183970,4,17,0.69,1.02,12.8878571,77.6430026,945.83,859.231,1.896,0.05,0.0971922,0.18000000000000002,9.27,9.27,-0.02,0.0,0.02,0.469,0.546,0.138,0.0,0.0,12.8878591,77.6430021,1003.5629087592021,329.99945169521004,0.20593965,0.3334261,144,0.144,255,0,1,1,109,True,0,0,-0.0,-0.0,0.03862199746441736,0.01980610129341874,0.04340438153673687
2026-03-17T09:16:27.247733+00:00,1773738987.247454,True,True,GPS_RAW_INT,183999000,184170,4,18,0.64,1.01,12.8878569,77.6430027,945.83,859.231,1.897,0.02,0.038876879999999996,0.07200000000000001,9.27,9.27,-0.03,0.0,0.02,0.47,0.547,0.158,0.0,0.0,12.8878591,77.6430021,1003.6654074899193,329.99577201271177,0.2157463,0.3334261,145,0.145,255,0,1,1,109,True,0,0,-0.0,-0.0,0.0452026193987637,0.023151851899446657,0.05078666209629651
2026-03-17T09:16:27.353546+00:00,1773738987.353356,True,True,GPS_RAW_INT,184199000,184270,4,18,0.69,1.02,12.8878567,77.6430027,945.82,859.22,1.895,0.01,0.019438439999999998,0.036000000000000004,9.27,9.27,-0.03,0.0,0.02,0.47,0.548,0.161,0.0,0.0,12.8878591,77.6430021,1003.4192893489391,329.9908323855095,0.2353596,0.3334261,149,0.149,255,0,1,1,109,True,0,0,-0.0,-0.0,0.05058191844289457,0.024715688520255064,0.05629738655030006
2026-03-17T09:16:27.453737+00:00,1773738987.453522,True,True,GPS_RAW_INT,184199000,184370,4,18,0.69,1.02,12.8878567,77.6430027,945.82,859.22,1.895,0.01,0.019438439999999998,0.036000000000000004,9.27,9.27,-0.03,0.0,0.02,0.47,0.548,0.161,0.0,0.0,12.8878591,77.6430021,1003.6156924204604,329.98164645920497,0.22555295,0.3334261,148,0.148,255,0,1,1,110,True,0,0,-0.0,-0.0,0.05259215672409294,0.025632999765976532,0.05850628706296535
2026-03-17T09:16:27.553777+00:00,1773738987.553658,True,True,GPS_RAW_INT,184399000,184470,4,17,0.69,1.02,12.8878565,77.6430028,945.84,859.241,1.897,0.04,0.07775375999999999,0.14400000000000002,9.27,9.27,-0.03,0.0,0.02,0.47,0.548,0.14,0.0,0.0,12.8878591,77.6430021,1003.5260830951892,329.9750365751131,0.2157463,0.3334261,150,0.15,255,0,1,1,108,True,0,0,-0.0,-0.0,0.0535039865103146,0.026586988780129384,0.05974566549039899
2026-03-17T09:16:27.653933+00:00,1773738987.653799,True,True,GPS_RAW_INT,184399000,184570,4,17,0.69,1.02,12.8878565,77.6430028,945.84,859.241,1.897,0.04,0.07775375999999999,0.14400000000000002,9.27,9.27,-0.03,0.0,0.02,0.47,0.548,0.14,0.0,0.0,12.8878591,77.6430021,1003.7089850765637,329.9689450408407,0.22555295,0.3334261,148,0.148,255,0,1,1,109,True,0,0,-0.0,-0.0,0.05465813498978175,0.0269061295986967,0.06092168358263802
2026-03-17T09:16:27.754095+00:00,1773738987.753953,True,True,GPS_RAW_INT,184599000,184670,4,18,0.64,1.01,12.8878562,77.6430028,945.84,859.24,1.901,0.01,0.019438439999999998,0.036000000000000004,9.27,9.27,-0.04,0.0,0.02,0.47,0.548,0.166,0.0,0.0,12.8878591,77.6430021,1003.5800941101867,329.96537723347546,0.22555295,0.34323275,148,0.148,255,0,1,1,109,True,0,0,-0.0,-0.0,0.05569311123918032,0.02763276333042794,0.062171474558475416
2026-03-17T09:16:27.854214+00:00,1773738987.854096,True,True,GPS_RAW_INT,184599000,184770,4,18,0.64,1.01,12.8878562,77.6430028,945.84,859.24,1.905,0.01,0.019438439999999998,0.036000000000000004,9.27,9.27,-0.04,0.0,0.02,0.47,0.548,0.166,0.0,0.0,12.8878591,77.6430021,1003.5537023319355,329.9639741920332,0.22555295,0.34323275,148,0.148,255,0,1,1,109,True,0,0,-0.0,-0.0,0.05633343274140355,0.028079625330867445,0.06294379241158043
2026-03-17T09:16:27.974171+00:00,1773738987.974022,True,True,GPS_RAW_INT,184799000,184870,4,18,0.64,1.01,12.887856,77.6430029,945.86,859.261,1.908,0.01,0.019438439999999998,0.036000000000000004,9.27,9.27,-0.04,0.0,0.01,0.47,0.549,0.148,0.0,0.0,12.8878591,77.6430021,1003.7529847983933,329.9640169529024,0.22555295,0.3334261,149,0.149,255,0,1,1,109,True,0,0,-0.0,-0.0,0.059015748435858106,0.029078418580129196,0.06579067555942629
2026-03-17T09:16:28.079914+00:00,1773738988.079793,True,True,GPS_RAW_INT,184799000,184970,4,18,0.64,1.01,12.887856,77.6430029,945.86,859.261,1.912,0.01,0.019438439999999998,0.036000000000000004,9.27,9.27,-0.04,0.0,0.01,0.47,0.549,0.148,0.0,0.0,12.8878591,77.6430021,1003.5927959170884,329.96542863420257,0.22555295,0.3334261,148,0.148,255,0,1,1,109,True,0,0,-0.0,-0.0,0.058175740272553164,0.028495016608935966,0.06477949311165611
2026-03-17T09:16:28.191375+00:00,1773738988.191110,True,True,GPS_RAW_INT,184999000,185070,4,17,0.69,1.02,12.8878557,77.6430029,945.87,859.271,1.916,0.08,0.15550751999999998,0.28800000000000003,9.27,9.27,-0.04,0.0,0.01,0.471,0.55,0.138,0.0,0.0,12.8878591,77.6430021,1003.8450484025591,329.9682886719934,0.22555295,0.3334261,147,0.147,255,0,1,1,111,True,0,0,-0.0,-0.0,0.058605972578373466,0.02859954141034455,0.0652119144845409
2026-03-17T09:16:28.330277+00:00,1773738988.330090,True,True,GPS_RAW_INT,184999000,185170,4,17,0.69,1.02,12.8878557,77.6430029,945.87,859.271,1.922,0.08,0.15550751999999998,0.28800000000000003,9.27,9.27,-0.05,0.0,0.01,0.471,0.55,0.138,0.0,0.0,12.8878591,77.6430021,1003.494596960554,329.9722970353714,0.2353596,0.3334261,148,0.148,255,0,1,1,109,True,0,0,-0.0,-0.0,0.06283684125515669,0.029873766773692263,0.06957665240707346
2026-03-17T09:16:28.435265+00:00,1773738988.435060,True,True,GPS_RAW_INT,185199000,185270,4,18,0.69,1.02,12.8878555,77.6430028,945.88,859.281,1.927,0.1,0.1943844,0.36000000000000004,9.27,9.27,-0.05,0.0,0.01,0.471,0.55,0.144,0.0,0.0,12.8878591,77.6430021,1003.9401815823916,329.9736820201647,0.22555295,0.34323275,149,0.149,255,0,1,1,108,True,0,0,-0.0,-0.0,0.059916035307054784,0.029093714321658037,0.06660612209058928
2026-03-17T09:16:28.535272+00:00,1773738988.535150,True,True,GPS_RAW_INT,185199000,185370,4,18,0.69,1.02,12.8878555,77.6430028,945.88,859.281,1.934,0.1,0.1943844,0.36000000000000004,9.27,9.27,-0.04,0.0,0.01,0.471,0.55,0.144,0.0,0.0,12.8878591,77.6430021,1004.036341310877,329.9744014770415,0.22555295,0.3334261,148,0.148,255,0,1,1,108,True,0,0,-0.0,-0.0,0.057958713022619214,0.028141953167446606,0.06442966663981033
2026-03-17T09:16:28.651756+00:00,1773738988.651647,True,True,GPS_RAW_INT,185399000,185570,4,18,0.69,1.02,12.8878554,77.6430029,945.87,859.271,1.945,0.08,0.15550751999999998,0.28800000000000003,9.27,9.27,-0.04,0.0,0.0,0.471,0.551,0.163,0.0,0.0,12.8878591,77.6430021,1003.8718567801984,329.97459885056674,0.2353596,0.3334261,149,0.149,255,0,1,1,109,True,0,0,-0.0,-0.0,0.05989547329058309,0.028458508814960086,0.06631255118508195
2026-03-17T09:16:28.755212+00:00,1773738988.755070,True,True,GPS_RAW_INT,185599000,185670,4,18,0.69,1.02,12.8878553,77.6430029,945.87,859.271,1.95,0.01,0.019438439999999998,0.036000000000000004,9.27,9.27,-0.04,0.0,0.0,0.471,0.552,0.167,0.0,0.0,12.8878591,77.6430021,1003.8338047301762,329.97385297898063,0.2353596,0.34323275,148,0.148,255,0,1,1,108,True,0,0,-0.0,-0.0,0.05925234210115934,0.02821321789624351,0.06562641014510648
2026-03-17T09:16:28.866492+00:00,1773738988.866319,True,True,GPS_RAW_INT,185599000,185770,4,18,0.69,1.02,12.8878553,77.6430029,945.87,859.271,1.955,0.01,0.019438439999999998,0.036000000000000004,9.27,9.27,-0.04,0.0,0.0,0.471,0.552,0.167,0.0,0.0,12.8878591,77.6430021,1003.7595422278383,329.97193933926997,0.2353596,0.3334261,147,0.147,255,0,1,1,109,True,0,0,-0.0,-0.0,0.059883126109930816,0.028143631628207162,0.0661668557052706
2026-03-17T09:16:28.996167+00:00,1773738988.996037,True,True,GPS_RAW_INT,185799000,185870,4,17,0.69,1.02,12.8878551,77.643003,945.87,859.27,1.962,0.04,0.07775375999999999,0.14400000000000002,9.27,9.27,-0.04,0.0,0.0,0.471,0.552,0.149,0.0,0.0,12.8878591,77.6430021,1004.0302037853359,329.9696084250005,0.2353596,0.3334261,148,0.148,255,0,1,1,110,True,0,0,-0.0,-0.0,0.06246468486459024,0.02910857888192404,0.06891404950920939
2026-03-17T09:16:29.113496+00:00,1773738989.113374,True,True,GPS_RAW_INT,185799000,185970,4,17,0.69,1.02,12.8878551,77.643003,945.87,859.27,1.972,0.04,0.07775375999999999,0.14400000000000002,9.27,9.27,-0.03,0.0,0.0,0.471,0.552,0.149,0.0,0.0,12.8878591,77.6430021,1003.7613834409989,329.9661979677278,0.22555295,0.3334261,150,0.15,255,0,1,1,109,True,0,0,-0.0,-0.0,0.061209129129775865,0.029002666656238206,0.06773265211106419
2026-03-17T09:16:29.213641+00:00,1773738989.213479,True,True,GPS_RAW_INT,185999000,186070,4,17,0.69,1.02,12.8878548,77.643003,945.88,859.281,1.982,0.01,0.019438439999999998,0.036000000000000004,9.27,9.27,-0.03,0.0,0.0,0.472,0.552,0.161,0.0,0.0,12.8878591,77.6430021,1003.7742719415221,329.96464616945116,0.2157463,0.34323275,149,0.149,255,0,1,1,109,True,0,0,-0.0,-0.0,0.058247701114363795,0.028755409177522354,0.06495897353002889
2026-03-17T09:16:29.314008+00:00,1773738989.313645,True,True,GPS_RAW_INT,185999000,186170,4,17,0.69,1.02,12.8878548,77.643003,945.88,859.281,1.991,0.01,0.019438439999999998,0.036000000000000004,9.27,9.27,-0.04,0.0,0.0,0.472,0.552,0.161,0.0,0.0,12.8878591,77.6430021,1003.333616321349,329.9639286878455,0.22555295,0.3334261,149,0.149,255,0,1,1,108,True,0,0,-0.0,-0.0,0.057267441431721376,0.028087155885609894,0.06378438816731088
2026-03-17T09:16:29.414140+00:00,1773738989.413859,True,True,GPS_RAW_INT,186199000,186270,4,18,0.69,1.02,12.8878546,77.6430031,945.89,859.291,1.996,0.06,0.11663064,0.216,9.27,9.27,-0.04,0.0,0.0,0.472,0.552,0.139,0.0,0.0,12.8878591,77.6430021,1003.6625720925642,329.963875633056,0.22555295,0.3334261,149,0.149,255,0,1,1,109,True,0,0,-0.0,-0.0,0.056886803713043964,0.027786399472650377,0.06331028693932841
2026-03-17T09:16:29.514623+00:00,1773738989.514354,True,True,GPS_RAW_INT,186199000,186370,4,18,0.69,1.02,12.8878546,77.6430031,945.89,859.291,2.0,0.06,0.11663064,0.216,9.27,9.27,-0.04,0.0,0.0,0.472,0.552,0.139,0.0,0.0,12.8878591,77.6430021,1003.7098295860656,329.9642507006374,0.2157463,0.3334261,148,0.148,255,0,1,1,109,True,0,0,-0.0,-0.0,0.056248619268752645,0.02795858712953302,0.06281392969653134
2026-03-17T09:16:29.617785+00:00,1773738989.617502,True,True,GPS_RAW_INT,186399000,186470,4,18,0.69,1.02,12.8878544,77.6430031,945.88,859.281,2.004,0.07,0.13606908,0.25200000000000006,9.27,9.27,-0.03,0.0,0.0,0.472,0.552,0.145,0.0,0.0,12.8878591,77.6430021,1003.6367953613252,329.96437694056067,0.22555295,0.3334261,149,0.149,255,0,1,1,109,True,0,0,-0.0,-0.0,0.056753761186905824,0.027943397113464323,0.06325996246522048
2026-03-17T09:16:29.718073+00:00,1773738989.717947,True,True,GPS_RAW_INT,186399000,186570,4,18,0.69,1.02,12.8878544,77.6430031,945.88,859.281,2.008,0.07,0.13606908,0.25200000000000006,9.27,9.27,-0.03,0.0,0.0,0.472,0.552,0.145,0.0,0.0,12.8878591,77.6430021,1003.771203249588,329.96303887731506,0.22555295,0.3334261,150,0.15,255,0,1,1,107,True,0,0,-0.0,-0.0,0.05662153940842292,0.027721414451051498,0.06304344172193137
2026-03-17T09:16:29.819321+00:00,1773738989.819058,True,True,GPS_RAW_INT,186599000,186670,4,18,0.69,1.02,12.8878542,77.643003,945.88,859.281,2.009,0.06,0.11663064,0.216,9.27,9.27,-0.03,0.0,0.0,0.472,0.553,0.153,0.0,0.0,12.8878591,77.6430021,1003.814360451074,329.96034157118015,0.22555295,0.3334261,162,0.162,255,0,1,1,108,True,0,0,-0.0,-0.0,0.05668828520915848,0.02765655815595778,0.06307493074898117
2026-03-17T09:16:29.921413+00:00,1773738989.921099,True,True,GPS_RAW_INT,186599000,186770,4,18,0.69,1.02,12.8878542,77.643003,945.88,859.281,2.011,0.06,0.11663064,0.216,9.27,9.27,-0.03,0.0,0.0,0.472,0.553,0.153,0.0,0.0,12.8878591,77.6430021,1003.8033128089588,329.9575699398172,0.2353596,0.3334261,163,0.163,255,0,1,1,110,True,0,0,-0.0,-0.0,0.05737965624548166,0.02737209405224038,0.06357402365474703
2026-03-17T09:16:30.026364+00:00,1773738990.026113,True,True,GPS_RAW_INT,186799000,186870,4,18,0.69,1.02,12.8878539,77.6430031,945.87,859.271,2.014,0.04,0.07775375999999999,0.14400000000000002,9.27,9.27,-0.04,0.0,0.0,0.472,0.553,0.142,0.0,0.0,12.8878591,77.6430021,1003.4191070935219,329.9551477261166,0.2353596,0.3334261,165,0.165,255,0,1,1,107,True,0,0,-0.0,-0.0,0.05817604496296274,0.02736890797175978,0.064292373817579
2026-03-17T09:16:30.133691+00:00,1773738990.133391,True,True,GPS_RAW_INT,186799000,186970,4,18,0.69,1.02,12.8878539,77.6430031,945.87,859.271,2.014,0.04,0.07775375999999999,0.14400000000000002,9.27,9.27,-0.04,0.0,0.0,0.472,0.553,0.142,0.0,0.0,12.8878591,77.6430021,1003.8274696126035,329.95404552246214,0.2157463,0.32361945000000003,163,0.163,255,0,1,1,109,True,0,0,-0.0,-0.0,0.0574439188778411,0.027541606608742237,0.06370513252976327
2026-03-17T09:16:30.238150+00:00,1773738990.237886,True,True,GPS_RAW_INT,186999000,187070,4,17,0.69,1.02,12.8878536,77.6430031,945.87,859.27,2.015,0.03,0.05831532,0.108,9.27,9.27,-0.04,0.0,0.0,0.473,0.554,0.156,0.0,0.0,12.8878591,77.6430021,1003.6161182948117,329.95379429331115,0.22555295,0.34323275,163,0.163,255,0,1,1,109,True,0,0,-0.0,-0.0,0.057702199892460615,0.028179579848939092,0.06421551676107742
2026-03-17T09:16:30.338286+00:00,1773738990.338006,True,True,GPS_RAW_INT,186999000,187170,4,17,0.69,1.02,12.8878536,77.6430031,945.87,859.27,2.015,0.03,0.05831532,0.108,9.27,9.27,-0.04,0.0,0.0,0.473,0.554,0.156,0.0,0.0,12.8878591,77.6430021,1003.7535985532679,329.95381863386274,0.2353596,0.34323275,161,0.161,255,0,1,1,109,True,0,0,-0.0,-0.0,0.0578311157887987,0.02798996700899362,0.06424855022910629
2026-03-17T09:16:30.438266+00:00,1773738990.438133,True,True,GPS_RAW_INT,187199000,187270,4,18,0.69,1.02,12.8878534,77.6430031,945.87,859.27,2.016,0.01,0.019438439999999998,0.036000000000000004,9.27,9.27,-0.04,0.0,0.0,0.473,0.554,0.138,0.0,0.0,12.8878591,77.6430021,1003.5563968872576,329.95412613043277,0.22555295,0.3334261,164,0.164,255,0,1,1,108,True,0,0,-0.0,-0.0,0.0572526185990787,0.027733841160725185,0.06361625800045069
2026-03-17T09:16:30.541564+00:00,1773738990.541432,True,True,GPS_RAW_INT,187199000,187370,4,18,0.69,1.02,12.8878534,77.6430031,945.87,859.27,2.016,0.01,0.019438439999999998,0.036000000000000004,9.27,9.27,-0.05,0.0,0.0,0.473,0.554,0.138,0.0,0.0,12.8878591,77.6430021,1003.8196886797273,329.95386546030045,0.2353596,0.34323275,163,0.163,255,0,1,1,109,True,0,0,-0.0,-0.0,0.05821951766741134,0.02803483884602839,0.06461783365719408
2026-03-17T09:16:30.641949+00:00,1773738990.641853,True,True,GPS_RAW_INT,187399000,187570,4,18,0.69,1.02,12.8878532,77.6430031,945.89,859.29,2.024,0.02,0.038876879999999996,0.07200000000000001,9.27,9.27,-0.05,0.0,0.0,0.473,0.555,0.16,0.0,0.0,12.8878591,77.6430021,1003.8160062346859,329.95361490745654,0.2353596,0.32361945000000003,161,0.161,255,0,1,1,108,True,0,0,-0.0,-0.0,0.057723464462394077,0.026950790845041376,0.06370512912407005
2026-03-17T09:16:30.742158+00:00,1773738990.742024,True,True,GPS_RAW_INT,187399000,187570,4,18,0.69,1.02,12.8878532,77.6430031,945.89,859.29,2.024,0.02,0.038876879999999996,0.07200000000000001,9.27,9.27,-0.05,0.0,0.0,0.473,0.555,0.16,0.0,0.0,12.8878591,77.6430021,1003.730696594219,329.95370352267855,0.22555295,0.3334261,163,0.163,255,0,1,1,109,True,0,0,-0.0,-0.0,0.05723279691115491,0.02712311264849069,0.06333447940905663
2026-03-17T09:16:30.843467+00:00,1773738990.842767,True,True,GPS_RAW_INT,187599000,187670,4,18,0.69,1.02,12.8878529,77.6430031,945.89,859.29,2.028,0.05,0.0971922,0.18000000000000002,9.27,9.27,-0.05,0.0,0.0,0.473,0.555,0.128,0.0,0.0,12.8878591,77.6430021,1003.5946371556862,329.95365027009666,0.2353596,0.3334261,164,0.164,255,0,1,1,107,True,0,0,-0.0,-0.0,0.057561934565927855,0.02697914391388658,0.06357083071109236
2026-03-17T09:16:30.945771+00:00,1773738990.945521,True,True,GPS_RAW_INT,187799000,187870,4,17,0.69,1.02,12.8878526,77.643003,945.88,859.281,2.031,0.05,0.0971922,0.18000000000000002,9.27,9.27,-0.05,0.0,0.0,0.474,0.555,0.103,0.0,0.0,12.8878591,77.6430021,1003.6908038181377,329.95237299079986,0.22555295,0.3334261,164,0.164,255,0,1,1,107,True,0,0,-0.0,-0.0,0.05750272685498881,0.027320368785549765,0.06366291028799967
2026-03-17T09:16:31.051659+00:00,1773738991.051358,True,True,GPS_RAW_INT,187799000,187970,4,17,0.69,1.02,12.8878526,77.643003,945.88,859.281,2.033,0.05,0.0971922,0.18000000000000002,9.27,9.27,-0.05,-0.01,0.0,0.474,0.555,0.103,0.0,0.0,12.8878591,77.6430021,1003.6908038181377,329.9510659701566,0.2157463,0.34323275,144,0.144,255,0,1,1,108,True,0,0,-0.0,-0.0,0.05757800364262687,0.028548861476571687,0.06426712997387414
2026-03-17T09:16:31.153621+00:00,1773738991.153431,True,True,GPS_RAW_INT,187999000,188070,4,18,0.69,1.02,12.8878523,77.6430029,945.85,859.251,2.035,0.02,0.038876879999999996,0.07200000000000001,9.27,9.27,-0.05,-0.01,0.0,0.474,0.554,0.12,0.0,0.0,12.8878591,77.6430021,1003.7570872774274,329.94589576447424,0.2157463,0.32361945000000003,144,0.144,255,0,1,1,107,True,0,0,-0.0,-0.0,0.056405628626218514,0.02791244565711601,0.06293408903988629
2026-03-17T09:16:31.255841+00:00,1773738991.255687,True,True,GPS_RAW_INT,187999000,188170,4,18,0.69,1.02,12.8878523,77.6430029,945.85,859.251,2.038,0.02,0.038876879999999996,0.07200000000000001,9.27,9.27,-0.05,-0.01,0.0,0.474,0.554,0.12,0.0,0.0,12.8878591,77.6430021,1003.6963274248767,329.94235492348344,0.22555295,0.32361945000000003,144,0.144,255,0,1,1,107,True,0,0,-0.0,-0.0,0.056318367085215565,0.02726884722583172,0.06257274566591146
2026-03-17T09:16:31.356572+00:00,1773738991.356446,True,True,GPS_RAW_INT,188199000,188270,4,18,0.64,1.01,12.887852,77.6430029,945.81,859.211,2.041,0.02,0.038876879999999996,0.07200000000000001,9.27,9.27,-0.06,-0.01,0.0,0.474,0.553,0.147,0.0,0.0,12.8878591,77.6430021,1003.7644521302657,329.9397127826768,0.2157463,0.3334261,144,0.144,255,0,1,1,106,True,0,0,-0.0,-0.0,0.05587110563939366,0.027617314490938686,0.06232412458317965
2026-03-17T09:16:31.456679+00:00,1773738991.456565,True,True,GPS_RAW_INT,188199000,188370,4,18,0.64,1.01,12.887852,77.6430029,945.81,859.211,2.044,0.02,0.038876879999999996,0.07200000000000001,9.27,9.27,-0.06,-0.01,0.0,0.474,0.553,0.147,0.0,0.0,12.8878591,77.6430021,1003.4011251194057,329.9370851314768,0.2157463,0.3334261,144,0.144,255,0,1,1,108,True,0,0,-0.0,-0.0,0.05557066963451965,0.02781207569969629,0.06214186091802015
2026-03-17T09:16:31.556885+00:00,1773738991.556759,True,True,GPS_RAW_INT,188399000,188470,4,18,0.64,1.01,12.8878517,77.6430029,945.77,859.171,2.045,0.02,0.038876879999999996,0.07200000000000001,9.27,9.27,-0.06,-0.01,0.0,0.474,0.552,0.151,0.0,0.0,12.8878591,77.6430021,1003.4999341790842,329.93521178064384,0.2353596,0.34323275,144,0.144,255,0,1,1,109,True,0,0,-0.0,-0.0,0.056773751684718814,0.02787346637433129,0.06324704742578179
2026-03-17T09:16:31.657204+00:00,1773738991.657057,True,True,GPS_RAW_INT,188399000,188570,4,18,0.64,1.01,12.8878517,77.6430029,945.77,859.171,2.045,0.02,0.038876879999999996,0.07200000000000001,9.27,9.27,-0.06,-0.01,0.0,0.474,0.552,0.151,0.0,0.0,12.8878591,77.6430021,1003.8258260907968,329.93323038798997,0.2157463,0.3334261,143,0.143,255,0,1,1,109,True,0,0,-0.0,-0.0,0.056197340057035916,0.028005110414076776,0.06278875089369723
2026-03-17T09:16:31.757658+00:00,1773738991.757548,True,True,GPS_RAW_INT,188599000,188670,4,18,0.64,1.01,12.8878513,77.6430028,945.75,859.151,2.047,0.04,0.07775375999999999,0.14400000000000002,9.27,9.27,-0.06,-0.01,0.0,0.474,0.55,0.151,0.0,0.0,12.8878591,77.6430021,1003.821529902697,329.9307977069169,0.22555295,0.3334261,145,0.145,255,0,1,1,108,True,0,0,-0.0,-0.0,0.056392638571604765,0.027797348952321114,0.06287147440489012
2026-03-17T09:16:31.857770+00:00,1773738991.857656,True,True,GPS_RAW_INT,188599000,188770,4,18,0.64,1.01,12.8878513,77.6430028,945.75,859.151,2.051,0.04,0.07775375999999999,0.14400000000000002,9.27,9.27,-0.06,-0.01,0.0,0.474,0.55,0.151,0.0,0.0,12.8878591,77.6430021,1003.8274696126035,329.9290938123396,0.22555295,0.3334261,144,0.144,255,0,1,1,108,True,0,0,-0.0,-0.0,0.056454724487697804,0.02764260583644329,0.06285896574404351
2026-03-17T09:16:31.957888+00:00,1773738991.957764,True,True,GPS_RAW_INT,188799000,188870,4,18,0.64,1.01,12.887851,77.6430028,945.71,859.111,2.056,0.01,0.019438439999999998,0.036000000000000004,9.27,9.27,-0.07,-0.01,0.0,0.474,0.549,0.141,0.0,0.0,12.8878591,77.6430021,1003.9019302653247,329.92819379143225,0.22555295,0.3334261,147,0.147,255,0,1,1,108,True,0,0,-0.0,-0.0,0.05650281368217661,0.02755289929311418,0.06286278878207088
2026-03-17T09:16:32.066388+00:00,1773738992.066084,True,True,GPS_RAW_INT,188799000,188970,4,18,0.64,1.01,12.887851,77.6430028,945.71,859.111,2.062,0.01,0.019438439999999998,0.036000000000000004,9.27,9.27,-0.07,-0.01,0.0,0.474,0.549,0.141,0.0,0.0,12.8878591,77.6430021,1003.7300828581336,329.928115257744,0.22555295,0.34323275,144,0.144,255,0,1,1,108,True,0,0,-0.0,-0.0,0.05794819951440082,0.028581066637687846,0.06461324320221634
2026-03-17T09:16:32.166390+00:00,1773738992.166250,True,True,GPS_RAW_INT,188999000,189070,4,18,0.64,1.01,12.8878507,77.6430028,945.68,859.08,2.068,0.01,0.019438439999999998,0.036000000000000004,9.27,9.27,-0.07,-0.01,0.0,0.474,0.548,0.157,0.0,0.0,12.8878591,77.6430021,1003.6938724882108,329.92792026764414,0.22555295,0.3334261,146,0.146,255,0,1,1,110,True,0,0,-0.0,-0.0,0.05716369537625036,0.02800250014745298,0.0636539714674336
2026-03-17T09:16:32.267367+00:00,1773738992.267225,True,True,GPS_RAW_INT,188999000,189170,4,18,0.64,1.01,12.8878507,77.6430028,945.68,859.08,2.074,0.01,0.019438439999999998,0.036000000000000004,9.27,9.27,-0.07,-0.01,0.0,0.474,0.548,0.157,0.0,0.0,12.8878591,77.6430021,1003.6815978129104,329.9272498650546,0.22555295,0.3334261,143,0.143,255,0,1,1,108,True,0,0,-0.0,-0.0,0.05695835113683758,0.027782600493183308,0.06337291735742577
2026-03-17T09:16:32.371194+00:00,1773738992.371061,True,True,GPS_RAW_INT,189199000,189270,4,18,0.64,1.01,12.8878504,77.6430027,945.64,859.04,2.077,0.03,0.05831532,0.108,9.27,9.27,-0.07,-0.01,0.0,0.474,0.547,0.117,0.0,0.0,12.8878591,77.6430021,1003.8061863871159,329.9273197393795,0.22555295,0.34323275,160,0.16,255,0,1,1,108,True,0,0,-0.0,-0.0,0.057557918977933165,0.028383314499317483,0.06417574759235364
2026-03-17T09:16:32.472650+00:00,1773738992.472411,True,True,GPS_RAW_INT,189199000,189370,4,18,0.64,1.01,12.8878504,77.6430027,945.64,859.04,2.081,0.03,0.05831532,0.108,9.27,9.27,-0.07,-0.01,-0.01,0.474,0.547,0.117,0.0,0.0,12.8878591,77.6430021,1003.7891963931073,329.92702307146965,0.2157463,0.32361945000000003,161,0.161,255,0,1,1,108,True,0,0,-0.0,-0.0,0.056379454244743527,0.027796524758399548,0.06285928451374106
2026-03-17T09:16:32.577993+00:00,1773738992.577784,True,True,GPS_RAW_INT,189399000,189470,4,18,0.69,1.02,12.8878501,77.6430027,945.61,859.01,2.084,0.04,0.07775375999999999,0.14400000000000002,9.27,9.27,-0.07,-0.01,-0.01,0.474,0.546,0.121,0.0,0.0,12.8878591,77.6430021,1003.5283527555049,329.9251099699044,0.22555295,0.34323275,160,0.16,255,0,1,1,107,True,0,0,-0.0,-0.0,0.05738777323162589,0.028481735796214828,0.06406688528756413
2026-03-17T09:16:32.678868+00:00,1773738992.678572,True,True,GPS_RAW_INT,189399000,189570,4,18,0.69,1.02,12.8878501,77.6430027,945.61,859.01,2.085,0.04,0.07775375999999999,0.14400000000000002,9.27,9.27,-0.07,-0.01,-0.01,0.474,0.546,0.121,0.0,0.0,12.8878591,77.6430021,1003.5516750000703,329.92160309498445,0.2157463,0.32361945000000003,160,0.16,255,0,1,1,107,True,0,0,-0.0,-0.0,0.05614813545221993,0.027790590225444875,0.06264926192573564
2026-03-17T09:16:32.782536+00:00,1773738992.782426,True,True,GPS_RAW_INT,189599000,189670,4,18,0.69,1.02,12.8878498,77.6430027,945.58,858.98,2.083,0.02,0.038876879999999996,0.07200000000000001,9.27,9.27,-0.07,-0.01,0.0,0.474,0.545,0.139,0.0,0.0,12.8878591,77.6430021,1003.7480747605937,329.91806394270145,0.22555295,0.32361945000000003,160,0.16,255,0,1,1,109,True,0,0,-0.0,-0.0,0.05642212336895091,0.027303434315639155,0.06268120556346646
2026-03-17T09:16:32.882813+00:00,1773738992.882556,True,True,GPS_RAW_INT,189599000,189770,4,18,0.69,1.02,12.8878498,77.6430027,945.58,858.98,2.082,0.02,0.038876879999999996,0.07200000000000001,9.27,9.27,-0.07,-0.01,0.0,0.474,0.545,0.139,0.0,0.0,12.8878591,77.6430021,1003.7591223486422,329.91544274356454,0.22555295,0.3334261,163,0.163,255,0,1,1,108,True,0,0,-0.0,-0.0,0.056340436877754065,0.027271160702511524,0.06259361815423677
2026-03-17T09:16:32.992402+00:00,1773738992.992294,True,True,GPS_RAW_INT,189799000,189870,4,18,0.69,1.02,12.8878496,77.6430028,945.55,858.951,2.081,0.02,0.038876879999999996,0.07200000000000001,9.27,9.27,-0.07,-0.01,0.0,0.474,0.544,0.149,0.0,0.0,12.8878591,77.6430021,1003.910107135644,329.9138534273452,0.22555295,0.32361945000000003,159,0.159,255,0,1,1,108,True,0,0,-0.0,-0.0,0.05733947492267216,0.027356650704274146,0.0635311083026529
2026-03-17T09:16:33.092749+00:00,1773738993.092477,True,True,GPS_RAW_INT,189799000,189970,4,18,0.69,1.02,12.8878496,77.6430028,945.55,858.951,2.081,0.02,0.038876879999999996,0.07200000000000001,9.27,9.27,-0.07,-0.01,0.0,0.474,0.544,0.149,0.0,0.0,12.8878591,77.6430021,1003.8407520843319,329.91155584113676,0.22555295,0.3334261,162,0.162,255,0,1,1,108,True,0,0,-0.0,-0.0,0.05673550861407547,0.027223752535925023,0.06292893324882534
2026-03-17T09:16:33.193047+00:00,1773738993.192721,True,True,GPS_RAW_INT,189999000,190070,4,18,0.69,1.02,12.8878493,77.6430028,945.52,858.921,2.084,0.05,0.0971922,0.18000000000000002,9.27,9.27,-0.07,-0.01,0.0,0.474,0.543,0.151,0.0,0.0,12.8878591,77.6430021,1003.7186145786629,329.90842981821504,0.2157463,0.3334261,160,0.16,255,0,1,1,107,True,0,0,-0.0,-0.0,0.056062529067333305,0.027542641902390662,0.06246282325022555
2026-03-17T09:16:33.293241+00:00,1773738993.292901,True,True,GPS_RAW_INT,189999000,190170,4,18,0.69,1.02,12.8878493,77.6430028,945.52,858.921,2.087,0.05,0.0971922,0.18000000000000002,9.27,9.27,-0.08,0.0,0.0,0.474,0.543,0.151,0.0,0.0,12.8878591,77.6430021,1003.6480332055704,329.9058130180108,0.22555295,0.3334261,162,0.162,255,0,1,1,108,True,0,0,-0.0,-0.0,0.05623432513336144,0.02746683317274037,0.06258375386427181
2026-03-17T09:16:33.395034+00:00,1773738993.394815,True,True,GPS_RAW_INT,190199000,190270,4,18,0.69,1.02,12.887849,77.6430028,945.5,858.901,2.089,0.04,0.07775375999999999,0.14400000000000002,9.27,9.27,-0.08,0.0,0.0,0.474,0.543,0.134,0.0,0.0,12.8878591,77.6430021,1004.0758244705778,329.90389940887826,0.2157463,0.3334261,159,0.159,255,0,1,1,108,True,0,0,-0.0,-0.0,0.056075969439218054,0.027850931080813646,0.06261141038673661
2026-03-17T09:16:33.495195+00:00,1773738993.494930,True,True,GPS_RAW_INT,190199000,190370,4,18,0.69,1.02,12.887849,77.6430028,945.5,858.901,2.093,0.04,0.07775375999999999,0.14400000000000002,9.27,9.27,-0.08,0.0,0.0,0.474,0.543,0.134,0.0,0.0,12.8878591,77.6430021,1003.4585696898629,329.90260367405153,0.22555295,0.34323275,159,0.159,255,0,1,1,110,True,0,0,-0.0,-0.0,0.05651839896245249,0.028158481039232082,0.06314451263344854
2026-03-17T09:16:33.595168+00:00,1773738993.595029,True,True,GPS_RAW_INT,190399000,190470,4,18,0.69,1.02,12.8878486,77.6430028,945.46,858.861,2.094,0.02,0.038876879999999996,0.07200000000000001,9.27,9.27,-0.08,0.0,0.0,0.474,0.542,0.107,0.0,0.0,12.8878591,77.6430021,1003.5991207792943,329.90201833913693,0.22555295,0.3334261,151,0.151,255,0,1,1,110,True,0,0,-0.0,-0.0,0.056526907607642576,0.027847531739228135,0.06301409610277908
2026-03-17T09:16:33.695328+00:00,1773738993.695202,True,True,GPS_RAW_INT,190399000,190570,4,18,0.69,1.02,12.8878486,77.6430028,945.46,858.861,2.093,0.02,0.038876879999999996,0.07200000000000001,9.27,9.27,-0.08,0.0,0.0,0.474,0.542,0.107,0.0,0.0,12.8878591,77.6430021,1003.8127126849607,329.90099689251883,0.22555295,0.3334261,151,0.151,255,0,1,1,108,True,0,0,-0.0,-0.0,0.056557892991232914,0.027670151556041255,0.06296373993610963
2026-03-17T09:16:33.796570+00:00,1773738993.796345,True,True,GPS_RAW_INT,190599000,190670,4,18,0.69,1.02,12.8878484,77.6430029,945.44,858.841,2.093,0.01,0.019438439999999998,0.036000000000000004,9.27,9.27,-0.08,0.0,0.0,0.474,0.541,0.149,0.0,0.0,12.8878591,77.6430021,1003.8057678396061,329.9005429938686,0.22555295,0.3334261,151,0.151,255,0,1,1,110,True,0,0,-0.0,-0.0,0.05671048705393723,0.02762630690386578,0.06308163104296974
2026-03-17T09:16:33.899705+00:00,1773738993.899402,True,True,GPS_RAW_INT,190599000,190770,4,18,0.69,1.02,12.8878484,77.6430029,945.44,858.841,2.093,0.01,0.019438439999999998,0.036000000000000004,9.27,9.27,-0.08,0.0,0.0,0.474,0.541,0.149,0.0,0.0,12.8878591,77.6430021,1003.6083272436061,329.89933783403467,0.22555295,0.3334261,150,0.15,255,0,1,1,108,True,0,0,-0.0,-0.0,0.05702979526732674,0.02770825242873717,0.0634046118266473
2026-03-17T09:16:33.999588+00:00,1773738993.999496,True,True,GPS_RAW_INT,190799000,190870,4,17,0.69,1.02,12.8878479,77.6430027,945.34,858.741,2.093,0.03,0.05831532,0.108,9.27,9.27,-0.08,0.0,0.0,0.473,0.537,0.142,0.0,0.0,12.8878591,77.6430021,1003.730889645127,329.89813387129016,0.22555295,0.3334261,149,0.149,255,0,1,1,109,True,0,0,-0.0,-0.0,0.05675580839589344,0.027531317909641768,0.06308086280729783
2026-03-17T09:16:34.103915+00:00,1773738994.103715,True,True,GPS_RAW_INT,190799000,190970,4,17,0.69,1.02,12.8878479,77.6430027,945.34,858.741,2.093,0.03,0.05831532,0.108,9.27,9.27,-0.08,0.0,0.0,0.473,0.537,0.142,0.0,0.0,12.8878591,77.6430021,1003.6247107619079,329.89636547883026,0.22555295,0.32361945000000003,153,0.153,255,0,1,1,108,True,0,0,-0.0,-0.0,0.05689793022559563,0.02718699659648296,0.0630595531850165
2026-03-17T09:16:34.209210+00:00,1773738994.209110,True,True,GPS_RAW_INT,190999000,191070,4,17,0.69,1.02,12.8878476,77.6430026,945.27,858.67,2.092,0.03,0.05831532,0.108,9.27,9.27,-0.08,0.0,0.0,0.473,0.534,0.12,0.0,0.0,12.8878591,77.6430021,1003.5627223958971,329.89442773558085,0.22555295,0.34323275,153,0.153,255,0,1,1,107,True,0,0,-0.0,-0.0,0.05765628243142859,0.028076662586029318,0.064129134453713
2026-03-17T09:16:34.311360+00:00,1773738994.311227,True,True,GPS_RAW_INT,190999000,191170,4,17,0.69,1.02,12.8878476,77.6430026,945.27,858.67,2.091,0.03,0.05831532,0.108,9.27,9.27,-0.08,0.0,0.0,0.473,0.534,0.12,0.0,0.0,12.8878591,77.6430021,1003.7671011689588,329.89434935021745,0.22555295,0.3334261,153,0.153,255,0,1,1,108,True,0,0,-0.0,-0.0,0.05729210797713822,0.027828147817689268,0.06369294660656884
2026-03-17T09:16:34.423450+00:00,1773738994.423319,True,True,GPS_RAW_INT,191199000,191270,4,18,0.69,1.02,12.8878471,77.6430026,945.22,858.62,2.091,0.06,0.11663064,0.216,9.27,9.27,-0.08,0.0,0.0,0.473,0.532,0.13,0.0,0.0,12.8878591,77.6430021,1003.8211117932418,329.89614877400186,0.20593965,0.3334261,152,0.152,255,0,1,1,107,True,0,0,-0.0,-0.0,0.05731874327683966,0.02900495548989475,0.0642395966192739
2026-03-17T09:16:34.523641+00:00,1773738994.523464,True,True,GPS_RAW_INT,191199000,191370,4,18,0.69,1.02,12.8878471,77.6430026,945.22,858.62,2.092,0.06,0.11663064,0.216,9.27,9.27,-0.08,0.0,0.0,0.473,0.532,0.13,0.0,0.0,12.8878591,77.6430021,1003.8033128089588,329.8992200697071,0.22555295,0.34323275,151,0.151,255,0,1,1,110,True,0,0,-0.0,-0.0,0.05691471881992546,0.02867780650882955,0.06373148205172263
2026-03-17T09:16:34.623725+00:00,1773738994.623597,True,True,GPS_RAW_INT,191399000,191470,4,17,0.69,1.02,12.8878467,77.6430024,945.14,858.541,2.092,0.03,0.05831532,0.108,9.27,9.27,-0.09,0.0,0.0,0.472,0.529,0.142,0.0,0.0,12.8878591,77.6430021,1003.9512293584647,329.90159341576145,0.22555295,0.34323275,153,0.153,255,0,1,1,109,True,0,0,-0.0,-0.0,0.05693731058076325,0.028615261909135357,0.06372354784770468
2026-03-17T09:16:34.723869+00:00,1773738994.723725,True,True,GPS_RAW_INT,191399000,191570,4,17,0.69,1.02,12.8878467,77.6430024,945.14,858.541,2.094,0.03,0.05831532,0.108,9.27,9.27,-0.09,-0.01,0.0,0.472,0.529,0.142,0.0,0.0,12.8878591,77.6430021,1003.7499160245209,329.9027552142512,0.22555295,0.32361945000000003,153,0.153,255,0,1,1,109,True,0,0,-0.0,-0.0,0.056450545432340106,0.02759314938835864,0.0628334781209585
2026-03-17T09:16:34.827004+00:00,1773738994.826835,True,True,GPS_RAW_INT,191599000,191670,4,17,0.69,1.02,12.8878463,77.6430023,945.08,858.48,2.097,0.05,0.0971922,0.18000000000000002,9.27,9.27,-0.09,-0.01,0.0,0.472,0.526,0.146,0.0,0.0,12.8878591,77.6430021,1003.7413234621114,329.90298080171965,0.22555295,0.3334261,163,0.163,255,0,1,1,109,True,0,0,-0.0,-0.0,0.05689073185552274,0.02769892562820844,0.06327547591297922
