timestamp_utc,timestamp_unix,origin_set,gps_healthy,gps_message_type,gps_time_usec,gps_time_boot_ms,gps_fix_type,gps_satellites_visible,gps_hdop,gps_vdop,gps_latitude_deg,gps_longitude_deg,gps_altitude_m,gps_alt_ellipsoid_m,gps_relative_alt_m,gps_speed_mps,gps_speed_knots,gps_speed_kmph,gps_course_deg,gps_heading_deg,gps_vn_mps,gps_ve_mps,gps_vd_mps,gps_hacc_m,gps_vacc_m,gps_vel_acc_mps,gps_hdg_acc_deg,gps_yaw_deg,of_latitude_deg,of_longitude_deg,of_altitude_m,of_heading_deg,imu_ax_mps2,imu_ay_mps2,of_distance_mm,of_distance_m,of_strength,of_precision,of_distance_status,of_status,of_quality,of_ok,of_raw_vx_cms_at_1m,of_raw_vy_cms_at_1m,of_body_vx_mps,of_body_vy_mps,of_vn_mps,of_ve_mps,of_speed_mps
2026-03-17T09:20:36.803155+00:00,1773739236.803024,True,True,GPS_RAW_INT,91848000,91935,4,21,0.6,0.96,12.8878701,77.6430058,952.35,865.75,0.164,0.03,0.05831532,0.108,124.47,124.47,0.1,-0.01,0.02,0.726,0.57,0.073,0.0,0.0,12.8878689,77.6430041,1003.3149176330766,337.12816986006635,0.2353596,0.3530394,138,0.138,255,0,1,1,128,True,0,0,-0.0,0.0,6.942228430809494e-06,4.584183035851743e-06,8.319210881551841e-06
2026-03-17T09:20:36.903361+00:00,1773739236.903131,True,True,GPS_RAW_INT,91848000,92035,4,21,0.6,0.96,12.8878701,77.6430058,952.35,865.75,0.167,0.03,0.05831532,0.108,124.47,124.47,0.1,0.0,0.01,0.726,0.57,0.073,0.0,0.0,12.8878689,77.6430041,1003.2474730386814,337.1346061751584,0.24516625,0.3530394,138,0.138,255,0,1,1,128,True,0,0,-0.0,0.0,0.016297280602005533,0.010325413591146696,0.01929288783071997
2026-03-17T09:20:37.003311+00:00,1773739237.003242,True,True,GPS_RAW_INT,92048000,92135,4,21,0.6,0.96,12.8878701,77.6430059,952.36,865.761,0.171,0.01,0.019438439999999998,0.036000000000000004,124.47,124.47,0.09,0.0,0.01,0.718,0.567,0.092,0.0,0.0,12.8878689,77.6430041,1003.3461875364504,337.141693817719,0.2353596,0.3530394,137,0.137,255,0,1,1,128,True,0,0,-0.0,0.0,0.028711846071510196,0.01872397106188816,0.03427764865273755
2026-03-17T09:20:37.103404+00:00,1773739237.103323,True,True,GPS_RAW_INT,92048000,92235,4,21,0.6,0.96,12.8878701,77.6430059,952.36,865.761,0.175,0.01,0.019438439999999998,0.036000000000000004,124.47,124.47,0.09,0.0,0.01,0.718,0.567,0.092,0.0,0.0,12.8878689,77.6430041,1003.2247872203246,337.14821431979715,0.24516625,0.36284605000000003,135,0.135,255,0,1,1,127,True,0,0,-0.0,0.0,0.038593041572616366,0.02516381577820699,0.04607212261601623
2026-03-17T09:20:37.203462+00:00,1773739237.203395,True,True,GPS_RAW_INT,92248000,92335,4,21,0.6,0.96,12.88787,77.643006,952.36,865.76,0.179,0.01,0.019438439999999998,0.036000000000000004,124.47,124.47,0.09,0.0,0.01,0.71,0.564,0.058,0.0,0.0,12.8878689,77.6430041,1003.0042971370551,337.1537577113155,0.24516625,0.36284605000000003,133,0.133,255,0,1,1,127,True,0,0,-0.0,0.0,0.04535353501667652,0.029573107318219705,0.05414343741363161
2026-03-17T09:20:37.303535+00:00,1773739237.303467,True,True,GPS_RAW_INT,92248000,92435,4,21,0.6,0.96,12.88787,77.643006,952.36,865.76,0.179,0.01,0.019438439999999998,0.036000000000000004,124.47,124.47,0.08,0.0,0.01,0.71,0.564,0.058,0.0,0.0,12.8878689,77.6430041,1003.3973236269221,337.1582013253145,0.2353596,0.3530394,135,0.135,255,0,1,1,127,True,0,0,-0.0,0.0,0.04901693295120453,0.03215591992171745,0.05862305776701507
2026-03-17T09:20:37.403780+00:00,1773739237.403667,True,True,GPS_RAW_INT,92448000,92535,4,21,0.6,0.96,12.88787,77.6430061,952.36,865.761,0.181,0.04,0.07775375999999999,0.14400000000000002,124.47,124.47,0.08,0.0,0.01,0.703,0.561,0.095,0.0,0.0,12.8878689,77.6430041,1003.4371788722058,337.16263242555794,0.24516625,0.36284605000000003,135,0.135,255,0,1,1,128,True,0,0,-0.0,0.0,0.052181014897648224,0.03414866918154273,0.06236176651297678
2026-03-17T09:20:37.503878+00:00,1773739237.503771,True,True,GPS_RAW_INT,92448000,92635,4,21,0.6,0.96,12.88787,77.6430061,952.36,865.761,0.184,0.04,0.07775375999999999,0.14400000000000002,124.47,124.47,0.08,0.0,0.01,0.703,0.561,0.095,0.0,0.0,12.8878689,77.6430041,1003.4230762308476,337.16792907933564,0.24516625,0.3530394,134,0.134,255,0,1,1,128,True,0,0,-0.0,0.0,0.05391032896654081,0.03483669479009302,0.06418659418584806
2026-03-17T09:20:37.603967+00:00,1773739237.603863,True,True,GPS_RAW_INT,92648000,92735,4,21,0.6,0.96,12.88787,77.6430061,952.36,865.761,0.189,0.03,0.05831532,0.108,124.47,124.47,0.07,0.0,0.01,0.696,0.559,0.103,0.0,0.0,12.8878689,77.6430041,1003.3621290891913,337.1727911184405,0.24516625,0.3530394,133,0.133,255,0,1,1,128,True,0,0,-0.0,0.0,0.0549832359548836,0.03527100621905574,0.06532380971571601
2026-03-17T09:20:37.704070+00:00,1773739237.703966,True,True,GPS_RAW_INT,92648000,92835,4,21,0.6,0.96,12.88787,77.6430061,952.36,865.761,0.194,0.03,0.05831532,0.108,124.47,124.47,0.07,0.0,0.01,0.696,0.559,0.103,0.0,0.0,12.8878689,77.6430041,1003.0312751165563,337.1772674672101,0.2353596,0.36284605000000003,133,0.133,255,0,1,1,128,True,0,0,-0.0,0.0,0.05532672912067302,0.036327330460012,0.06618702209303001
2026-03-17T09:20:37.804197+00:00,1773739237.804074,True,True,GPS_RAW_INT,92848000,92935,4,21,0.6,0.96,12.8878699,77.6430062,952.35,865.751,0.196,0.04,0.07775375999999999,0.14400000000000002,124.47,124.47,0.07,0.0,0.01,0.69,0.557,0.077,0.0,0.0,12.8878689,77.6430041,1003.0382531251037,337.18044909761807,0.24516625,0.3530394,135,0.135,255,0,1,1,128,True,0,0,-0.0,0.0,0.05585817021045985,0.036191117835911016,0.06655773575981608
2026-03-17T09:20:37.904361+00:00,1773739237.904209,True,True,GPS_RAW_INT,92848000,93035,4,21,0.6,0.96,12.8878699,77.6430062,952.35,865.751,0.195,0.04,0.07775375999999999,0.14400000000000002,124.47,124.47,0.06,0.01,0.01,0.69,0.557,0.077,0.0,0.0,12.8878689,77.6430041,1003.1345188012558,337.1821944414686,0.2353596,0.36284605000000003,134,0.134,255,0,1,1,128,True,0,0,-0.0,0.0,0.05586678211260061,0.03689544076133458,0.06695051077168823
2026-03-17T09:20:38.004910+00:00,1773739238.004620,True,True,GPS_RAW_INT,93048000,93135,4,21,0.6,0.96,12.8878698,77.6430063,952.34,865.74,0.192,0.04,0.07775375999999999,0.14400000000000002,124.47,124.47,0.06,0.01,0.01,0.683,0.555,0.1,0.0,0.0,12.8878689,77.6430041,1003.4764210975025,337.1825918013386,0.24516625,0.3530394,137,0.137,255,0,1,1,127,True,0,0,-0.0,0.0,0.056228280862048154,0.03656412230695942,0.0670712651496873
2026-03-17T09:20:38.104855+00:00,1773739238.104714,True,True,GPS_RAW_INT,93048000,93235,4,21,0.6,0.96,12.8878698,77.6430063,952.34,865.74,0.192,0.04,0.07775375999999999,0.14400000000000002,124.47,124.47,0.05,0.01,0.01,0.683,0.555,0.1,0.0,0.0,12.8878689,77.6430041,1003.153903109616,337.18165503208536,0.24516625,0.34323275,136,0.136,255,0,1,1,127,True,0,0,-0.0,0.0,0.056164911334911485,0.03577787355380581,0.06659244327467333
2026-03-17T09:20:38.205434+00:00,1773739238.205194,True,True,GPS_RAW_INT,93248000,93335,4,21,0.6,0.96,12.8878696,77.6430064,952.33,865.73,0.189,0.09,0.17494595999999998,0.324,124.47,124.47,0.05,0.01,0.01,0.678,0.553,0.129,0.0,0.0,12.8878689,77.6430041,1003.507692343568,337.1796798525239,0.2549729,0.3530394,133,0.133,255,0,1,1,127,True,0,0,-0.0,0.0,0.056970857094612956,0.03565392492795261,0.06720774450063692
2026-03-17T09:20:38.305592+00:00,1773739238.305414,True,True,GPS_RAW_INT,93248000,93435,4,21,0.6,0.96,12.8878696,77.6430064,952.33,865.73,0.188,0.09,0.17494595999999998,0.324,124.47,124.47,0.04,0.02,0.01,0.678,0.553,0.129,0.0,0.0,12.8878689,77.6430041,1003.1489979642869,337.1769147731213,0.24516625,0.36284605000000003,131,0.131,255,0,1,1,127,True,0,0,-0.0,0.0,0.05709680415936707,0.03633357754387219,0.06767698207182181
2026-03-17T09:20:38.406675+00:00,1773739238.406524,True,True,GPS_RAW_INT,93448000,93535,4,21,0.6,0.96,12.8878695,77.6430065,952.31,865.711,0.185,0.03,0.05831532,0.108,124.47,124.47,0.03,0.02,0.01,0.672,0.552,0.104,0.0,0.0,12.8878689,77.6430041,1003.1588082570768,337.17349055639215,0.24516625,0.3530394,131,0.131,255,0,1,1,126,True,0,0,-0.0,0.0,0.057066132837608585,0.03627303626436765,0.06761861191177855
2026-03-17T09:20:38.506853+00:00,1773739238.506658,True,True,GPS_RAW_INT,93448000,93635,4,21,0.6,0.96,12.8878695,77.6430065,952.31,865.711,0.183,0.03,0.05831532,0.108,124.47,124.47,0.03,0.02,0.01,0.672,0.552,0.104,0.0,0.0,12.8878689,77.6430041,1003.3170004067974,337.16941710101923,0.24516625,0.3530394,132,0.132,255,0,1,1,126,True,0,0,-0.0,0.0,0.05689056965776633,0.03613447709406688,0.06739612266923674
2026-03-17T09:20:38.608086+00:00,1773739238.607844,True,True,GPS_RAW_INT,93648000,93735,4,21,0.6,0.96,12.8878695,77.6430066,952.3,865.7,0.18,0.02,0.038876879999999996,0.07200000000000001,124.47,124.47,0.02,0.02,0.01,0.666,0.55,0.132,0.0,0.0,12.8878689,77.6430041,1003.2820507873755,337.16465637294914,0.24516625,0.3530394,129,0.129,255,0,1,1,127,True,0,0,-0.0,0.0,0.05694761810757795,0.03615148080439724,0.0674533970417891
2026-03-17T09:20:38.708199+00:00,1773739238.707992,True,True,GPS_RAW_INT,93648000,93835,4,21,0.6,0.96,12.8878695,77.6430066,952.3,865.7,0.178,0.02,0.038876879999999996,0.07200000000000001,124.47,124.47,0.02,0.02,0.01,0.666,0.55,0.132,0.0,0.0,12.8878689,77.6430041,1003.4905238055799,337.1606102017529,0.2353596,0.36284605000000003,133,0.133,255,0,1,1,127,True,0,0,-0.0,0.0,0.056498945075145926,0.03683877738922875,0.06744795263117709
2026-03-17T09:20:38.808242+00:00,1773739238.808121,True,True,GPS_RAW_INT,93848000,93935,4,21,0.6,0.96,12.8878696,77.6430067,952.27,865.671,0.179,0.05,0.0971922,0.18000000000000002,124.47,124.47,0.01,0.02,0.01,0.66,0.547,0.103,0.0,0.0,12.8878689,77.6430041,1003.2442749378564,337.15577258760163,0.24516625,0.3530394,133,0.133,255,0,1,1,127,True,0,0,-0.0,0.0,0.05656701178426349,0.03648574261374973,0.06731297227338723
2026-03-17T09:20:38.908420+00:00,1773739238.908286,True,True,GPS_RAW_INT,93848000,94035,4,21,0.6,0.96,12.8878696,77.6430067,952.27,865.671,0.18,0.05,0.0971922,0.18000000000000002,124.47,124.47,0.0,0.03,0.01,0.66,0.547,0.103,0.0,0.0,12.8878689,77.6430041,1003.2881822917176,337.1501225823042,0.2353596,0.3530394,130,0.13,255,0,1,1,127,True,0,0,-0.0,0.0,0.056072567004366594,0.03650997455927878,0.06691121739124438
2026-03-17T09:20:39.008699+00:00,1773739239.008460,True,True,GPS_RAW_INT,94048000,94135,4,21,0.6,0.96,12.8878697,77.6430068,952.25,865.65,0.181,0.02,0.038876879999999996,0.07200000000000001,124.47,124.47,0.0,0.03,0.01,0.654,0.545,0.073,0.0,0.0,12.8878689,77.6430041,1003.3617606039137,337.1443678211151,0.24516625,0.3530394,131,0.131,255,0,1,1,127,True,0,0,-0.0,0.0,0.056327764805212975,0.03629232919109916,0.06700709101331365
2026-03-17T09:20:39.109316+00:00,1773739239.109042,True,True,GPS_RAW_INT,94048000,94235,4,21,0.6,0.96,12.8878697,77.6430068,952.25,865.65,0.183,0.02,0.038876879999999996,0.07200000000000001,124.47,124.47,0.0,0.03,0.01,0.654,0.545,0.073,0.0,0.0,12.8878689,77.6430041,1003.1860243412624,337.1386428332336,0.24516625,0.3530394,133,0.133,255,0,1,1,127,True,0,0,-0.0,0.0,0.056540361573357165,0.036192559136806676,0.06713206256117275
2026-03-17T09:20:39.209364+00:00,1773739239.209197,True,True,GPS_RAW_INT,94248000,94335,4,21,0.6,0.96,12.8878699,77.6430068,952.25,865.651,0.184,0.05,0.0971922,0.18000000000000002,124.47,124.47,0.0,0.03,0.01,0.649,0.543,0.117,0.0,0.0,12.8878689,77.6430041,1003.420623599368,337.13242889766866,0.22555295,0.36284605000000003,132,0.132,255,0,1,1,127,True,0,0,-0.0,0.0,0.05573074110137052,0.03710126423859403,0.06695087237527204
2026-03-17T09:20:39.309535+00:00,1773739239.309311,True,True,GPS_RAW_INT,94248000,94435,4,21,0.6,0.96,12.8878699,77.6430068,952.25,865.651,0.186,0.05,0.0971922,0.18000000000000002,124.47,124.47,-0.01,0.03,0.01,0.649,0.543,0.117,0.0,0.0,12.8878689,77.6430041,1003.3265671947865,337.12539743217485,0.2353596,0.3530394,132,0.132,255,0,1,1,128,True,0,0,-0.0,0.0,0.055561450470028986,0.03687062314370045,0.06668221374053401
2026-03-17T09:20:39.409619+00:00,1773739239.409433,True,True,GPS_RAW_INT,94448000,94535,4,21,0.6,0.96,12.8878699,77.6430068,952.25,865.651,0.189,0.01,0.019438439999999998,0.036000000000000004,124.47,124.47,-0.01,0.03,0.01,0.643,0.54,0.117,0.0,0.0,12.8878689,77.6430041,1003.1876260415072,337.1181092091023,0.2353596,0.36284605000000003,131,0.131,255,0,1,1,128,True,0,0,-0.0,0.0,0.05569837617723273,0.03728231241358526,0.06702447260280904
2026-03-17T09:20:39.509763+00:00,1773739239.509532,True,True,GPS_RAW_INT,94448000,94635,4,21,0.6,0.96,12.8878699,77.6430068,952.25,865.651,0.191,0.01,0.019438439999999998,0.036000000000000004,124.47,124.47,-0.01,0.03,0.01,0.643,0.54,0.117,0.0,0.0,12.8878689,77.6430041,1003.1518250329265,337.1114685345718,0.2353596,0.34323275,128,0.128,255,0,1,1,128,True,0,0,-0.0,0.0,0.05531644983141051,0.03642718978657903,0.06623329810373633
2026-03-17T09:20:39.609893+00:00,1773739239.609653,True,True,GPS_RAW_INT,94648000,94735,4,21,0.6,0.96,12.8878701,77.6430069,952.23,865.63,0.191,0.05,0.0971922,0.18000000000000002,124.47,124.47,-0.02,0.03,0.01,0.637,0.538,0.149,0.0,0.0,12.8878689,77.6430041,1003.1876260415072,337.1062409606685,0.24516625,0.3530394,128,0.128,255,0,1,1,128,True,0,0,-0.0,0.0,0.055873060176396025,0.03622517155510334,0.06658875211078699
2026-03-17T09:20:39.710035+00:00,1773739239.709785,True,True,GPS_RAW_INT,94648000,94835,4,21,0.6,0.96,12.8878701,77.6430069,952.23,865.63,0.19,0.05,0.0971922,0.18000000000000002,124.47,124.47,-0.02,0.03,0.01,0.637,0.538,0.149,0.0,0.0,12.8878689,77.6430041,1003.0833918506564,337.1023498315111,0.24516625,0.3530394,128,0.128,255,0,1,1,128,True,0,0,-0.0,0.0,0.05621449889571205,0.036101340039474406,0.06680850723329904
2026-03-17T09:20:39.810164+00:00,1773739239.809919,True,True,GPS_RAW_INT,94848000,94935,4,21,0.6,0.96,12.8878702,77.6430069,952.22,865.62,0.189,0.05,0.0971922,0.18000000000000002,124.47,124.47,-0.03,0.03,0.01,0.633,0.536,0.092,0.0,0.0,12.8878689,77.6430041,1003.0435378558508,337.1002179316364,0.2353596,0.3530394,126,0.126,255,0,1,1,128,True,0,0,-0.0,0.0,0.055871782864093195,0.03625788156030065,0.06660548097306383
2026-03-17T09:20:39.910263+00:00,1773739239.910024,True,True,GPS_RAW_INT,94848000,95035,4,21,0.6,0.96,12.8878702,77.6430069,952.22,865.62,0.186,0.05,0.0971922,0.18000000000000002,124.47,124.47,-0.03,0.03,0.01,0.633,0.536,0.092,0.0,0.0,12.8878689,77.6430041,1003.2152176062582,337.10002801470273,0.24516625,0.3530394,129,0.129,255,0,1,1,128,True,0,0,-0.0,0.0,0.056209950471105746,0.036117647204496985,0.06681349393313203
2026-03-17T09:20:40.010380+00:00,1773739240.010156,True,True,GPS_RAW_INT,95048000,95135,4,21,0.6,0.96,12.8878703,77.6430069,952.2,865.6,0.003,0.14,0.27213816,0.5040000000000001,148.75,148.75,-0.03,0.02,0.01,0.63,0.534,0.174,0.0,0.0,12.8878689,77.6430041,1003.2636562943449,337.10136092523896,0.2353596,0.34323275,128,0.128,255,0,1,1,128,True,0,0,-0.0,0.0,0.055636194053850827,0.035717178777338564,0.0661143172740225
2026-03-17T09:20:40.110354+00:00,1773739240.110244,True,True,GPS_RAW_INT,95048000,95235,4,21,0.6,0.96,12.8878703,77.6430069,952.2,865.6,0.001,0.14,0.27213816,0.5040000000000001,148.75,148.75,-0.04,0.02,0.01,0.63,0.534,0.174,0.0,0.0,12.8878689,77.6430041,1003.3605342947783,337.10396065966256,0.22555295,0.36284605000000003,127,0.127,255,0,1,1,128,True,0,0,-0.0,0.0,0.055193995000483775,0.036804924069830436,0.0663398788052813
2026-03-17T09:20:40.210452+00:00,1773739240.210352,True,True,GPS_RAW_INT,95248000,95335,4,21,0.6,0.96,12.8878703,77.6430069,952.16,865.561,0.0,0.04,0.07775375999999999,0.14400000000000002,148.75,148.75,-0.05,0.02,0.01,0.628,0.534,0.184,0.0,0.0,12.8878689,77.6430041,1003.3580816769046,337.1071021124644,0.24516625,0.3530394,130,0.13,255,0,1,1,128,True,0,0,-0.0,0.0,0.05579706005887483,0.03645500982347388,0.06665042874913306
2026-03-17T09:20:40.310523+00:00,1773739240.310430,True,True,GPS_RAW_INT,95248000,95435,4,21,0.6,0.96,12.8878703,77.6430069,952.16,865.561,-0.002,0.04,0.07775375999999999,0.14400000000000002,148.75,148.75,-0.05,0.02,0.01,0.628,0.534,0.184,0.0,0.0,12.8878689,77.6430041,1003.1048517523559,337.10992590496085,0.2353596,0.34323275,130,0.13,255,0,1,1,128,True,0,0,-0.0,0.0,0.055375890150774605,0.03592175903293326,0.06600652984372665
2026-03-17T09:20:40.410577+00:00,1773739240.410500,True,True,GPS_RAW_INT,95448000,95535,4,21,0.6,0.96,12.8878704,77.6430071,952.14,865.541,-0.003,0.09,0.17494595999999998,0.324,148.75,148.75,-0.05,0.02,0.01,0.624,0.532,0.151,0.0,0.0,12.8878689,77.6430041,1003.2967664033999,337.11232322001456,0.2353596,0.3530394,129,0.129,255,0,1,1,128,True,0,0,-0.0,0.0,0.055351201114124386,0.03614866381318994,0.06610961624646805
2026-03-17T09:20:40.510793+00:00,1773739240.510713,True,True,GPS_RAW_INT,95448000,95635,4,21,0.6,0.96,12.8878704,77.6430071,952.14,865.541,-0.004,0.09,0.17494595999999998,0.324,148.75,148.75,-0.06,0.02,0.01,0.624,0.532,0.151,0.0,0.0,12.8878689,77.6430041,1003.2507801670819,337.1137572263722,0.2353596,0.36284605000000003,130,0.13,255,0,1,1,128,True,0,0,-0.0,0.0,0.05558789901596611,0.03685194101054151,0.06669392830875744
2026-03-17T09:20:40.612209+00:00,1773739240.611942,True,True,GPS_RAW_INT,95648000,95735,4,21,0.6,0.96,12.8878705,77.6430071,952.12,865.521,-0.004,0.08,0.15550751999999998,0.28800000000000003,148.75,148.75,-0.06,0.02,0.01,0.62,0.53,0.143,0.0,0.0,12.8878689,77.6430041,1003.1330562567086,337.1164252326902,0.24516625,0.3530394,128,0.128,255,0,1,1,128,True,0,0,-0.0,0.0,0.0561839569943749,0.03657989770809529,0.06704271727697561
2026-03-17T09:20:40.712613+00:00,1773739240.712461,True,True,GPS_RAW_INT,95648000,95835,4,21,0.6,0.96,12.8878705,77.6430071,952.12,865.521,-0.005,0.08,0.15550751999999998,0.28800000000000003,148.75,148.75,-0.07,0.02,0.01,0.62,0.53,0.143,0.0,0.0,12.8878689,77.6430041,1003.4271218067059,337.12038288727126,0.24516625,0.3530394,131,0.131,255,0,1,1,128,True,0,0,-0.0,0.0,0.05641576702522125,0.03633400899576043,0.06710364355791748
2026-03-17T09:20:40.812933+00:00,1773739240.812754,True,True,GPS_RAW_INT,95848000,95935,4,21,0.6,0.96,12.8878706,77.6430072,952.11,865.511,-0.004,0.01,0.019438439999999998,0.036000000000000004,148.75,148.75,-0.07,0.02,0.01,0.616,0.529,0.172,0.0,0.0,12.8878689,77.6430041,1003.1996489343821,337.1245143435701,0.2353596,0.3530394,131,0.131,255,0,1,1,128,True,0,0,-0.0,0.0,0.05598348904507865,0.036405990240878275,0.06677984105311546
2026-03-17T09:20:40.912921+00:00,1773739240.912837,True,True,GPS_RAW_INT,95848000,96035,4,21,0.6,0.96,12.8878706,77.6430072,952.11,865.511,-0.004,0.01,0.019438439999999998,0.036000000000000004,148.75,148.75,-0.07,0.02,0.01,0.616,0.529,0.172,0.0,0.0,12.8878689,77.6430041,1003.5368745103325,337.12724200175535,0.24516625,0.3530394,128,0.128,255,0,1,1,127,True,0,0,-0.0,0.0,0.05625380560641022,0.03620718096066779,0.0668988086465098
2026-03-17T09:20:41.012987+00:00,1773739241.012908,True,True,GPS_RAW_INT,96048000,96135,4,21,0.6,0.96,12.8878708,77.6430072,952.1,865.5,-0.004,0.04,0.07775375999999999,0.14400000000000002,148.75,148.75,-0.06,0.02,0.01,0.612,0.527,0.096,0.0,0.0,12.8878689,77.6430041,1002.8013512240269,337.1293565253204,0.2353596,0.3530394,130,0.13,255,0,1,1,127,True,0,0,-0.0,0.0,0.05587604912217257,0.03632514780727028,0.06664569925151566
2026-03-17T09:20:41.113052+00:00,1773739241.112976,True,True,GPS_RAW_INT,96048000,96235,4,21,0.6,0.96,12.8878708,77.6430072,952.1,865.5,-0.005,0.04,0.07775375999999999,0.14400000000000002,148.75,148.75,-0.06,0.02,0.01,0.612,0.527,0.096,0.0,0.0,12.8878689,77.6430041,1003.2811952854508,337.1313904108547,0.2353596,0.34323275,132,0.132,255,0,1,1,127,True,0,0,-0.0,0.0,0.05541690056044774,0.03584933310284301,0.06600157234221886
2026-03-17T09:20:41.213123+00:00,1773739241.213044,True,True,GPS_RAW_INT,96248000,96335,4,21,0.6,0.96,12.887871,77.6430073,952.09,865.491,-0.006,0.03,0.05831532,0.108,148.75,148.75,-0.06,0.01,0.01,0.608,0.526,0.132,0.0,0.0,12.8878689,77.6430041,1003.395851678873,337.13294660296583,0.22555295,0.3530394,130,0.13,255,0,1,1,127,True,0,0,-0.0,0.0,0.0548196918809913,0.03634455220358717,0.06577328555580979
2026-03-17T09:20:41.313197+00:00,1773739241.313118,True,True,GPS_RAW_INT,96248000,96435,4,21,0.6,0.96,12.887871,77.6430073,952.09,865.491,-0.006,0.03,0.05831532,0.108,148.75,148.75,-0.06,0.01,0.01,0.608,0.526,0.132,0.0,0.0,12.8878689,77.6430041,1003.262429995879,337.13514821809974,0.2353596,0.3530394,132,0.132,255,0,1,1,127,True,0,0,-0.0,0.0,0.05500750197212501,0.036415608692288784,0.06596909753546153
2026-03-17T09:20:41.413271+00:00,1773739241.413187,True,True,GPS_RAW_INT,96448000,96535,4,21,0.6,0.96,12.8878711,77.6430073,952.07,865.47,-0.005,0.04,0.07775375999999999,0.14400000000000002,148.75,148.75,-0.06,0.01,0.01,0.605,0.524,0.136,0.0,0.0,12.8878689,77.6430041,1003.3155307676026,337.1378436460824,0.2353596,0.3530394,129,0.129,255,0,1,1,127,True,0,0,-0.0,0.0,0.05512078273748125,0.036459591334147896,0.06608783919788634
2026-03-17T09:20:41.513345+00:00,1773739241.513260,True,True,GPS_RAW_INT,96448000,96635,4,21,0.6,0.96,12.8878711,77.6430073,952.07,865.47,-0.005,0.04,0.07775375999999999,0.14400000000000002,148.75,148.75,-0.05,0.01,0.01,0.605,0.524,0.136,0.0,0.0,12.8878689,77.6430041,1003.5368745103325,337.1403754060152,0.24516625,0.3530394,129,0.129,255,0,1,1,128,True,0,0,-0.0,0.0,0.0557411761041077,0.03625551076420609,0.06649466726168807
2026-03-17T09:20:41.613419+00:00,1773739241.613333,True,True,GPS_RAW_INT,96648000,96735,4,21,0.6,0.96,12.8878712,77.6430074,952.06,865.461,-0.004,0.05,0.0971922,0.18000000000000002,148.75,148.75,-0.05,0.01,0.01,0.601,0.523,0.161,0.0,0.0,12.8878689,77.6430041,1003.2063933470598,337.1425588942626,0.24516625,0.3530394,130,0.13,255,0,1,1,128,True,0,0,-0.0,0.0,0.05611855736212709,0.036131829365708586,0.06674429993429425
2026-03-17T09:20:41.713494+00:00,1773739241.713409,True,True,GPS_RAW_INT,96648000,96835,4,21,0.6,0.96,12.8878712,77.6430074,952.06,865.461,-0.004,0.05,0.0971922,0.18000000000000002,148.75,148.75,-0.05,0.01,0.01,0.601,0.523,0.161,0.0,0.0,12.8878689,77.6430041,1003.2940710790015,337.1441431118931,0.24516625,0.3530394,132,0.132,255,0,1,1,128,True,0,0,-0.0,0.0,0.056348699407207055,0.03605738136001084,0.0668977628581482
2026-03-17T09:20:41.813580+00:00,1773739241.813488,True,True,GPS_RAW_INT,96848000,96935,4,21,0.6,0.96,12.8878712,77.6430074,952.04,865.44,-0.002,0.12,0.23326128,0.432,170.62,170.62,-0.05,0.01,0.01,0.599,0.523,0.155,0.0,0.0,12.8878689,77.6430041,1003.2677063746395,337.1453805528024,0.24516625,0.34323275,132,0.132,255,0,1,1,128,True,0,0,-0.0,0.0,0.056256568272005,0.03546140558181422,0.06650047187487232
2026-03-17T09:20:41.913646+00:00,1773739241.913561,True,True,GPS_RAW_INT,96848000,97035,4,21,0.6,0.96,12.8878712,77.6430074,952.04,865.44,-0.001,0.12,0.23326128,0.432,170.62,170.62,-0.05,0.01,0.01,0.599,0.523,0.155,0.0,0.0,12.8878689,77.6430041,1003.2035678262404,337.1463032235065,0.24516625,0.3530394,138,0.138,255,0,1,1,128,True,0,0,-0.0,0.0,0.05643155228587296,0.035649125831291206,0.06674863493681686
2026-03-17T09:20:42.013714+00:00,1773739242.013630,True,True,GPS_RAW_INT,97048000,97135,4,21,0.6,0.96,12.8878713,77.6430075,952.04,865.441,0.0,0.06,0.11663064,0.216,170.62,170.62,-0.05,0.01,0.01,0.596,0.522,0.13,0.0,0.0,12.8878689,77.6430041,1003.5282904614827,337.1466947619922,0.24516625,0.36284605000000003,137,0.137,255,0,1,1,128,True,0,0,-0.0,0.0,0.0567700762605664,0.036314664734327554,0.06739136764747498
2026-03-17T09:20:42.113789+00:00,1773739242.113707,True,True,GPS_RAW_INT,97048000,97235,4,21,0.6,0.96,12.8878713,77.6430075,952.04,865.441,0.002,0.06,0.11663064,0.216,170.62,170.62,-0.05,0.01,0.01,0.596,0.522,0.13,0.0,0.0,12.8878689,77.6430041,1003.2033277044358,337.1467021011837,0.24516625,0.36284605000000003,137,0.137,255,0,1,1,127,True,0,0,-0.0,0.0,0.056977556808557296,0.03672107081186371,0.06778553696359042
2026-03-17T09:20:42.213859+00:00,1773739242.213780,True,True,GPS_RAW_INT,97248000,97335,4,21,0.6,0.96,12.8878713,77.6430075,952.04,865.441,0.004,0.02,0.038876879999999996,0.07200000000000001,170.62,170.62,-0.06,0.01,0.01,0.594,0.521,0.13,0.0,0.0,12.8878689,77.6430041,1003.2906348943865,337.14521092546556,0.1569064,0.3726527,137,0.137,255,0,1,1,127,True,0,0,-0.0,0.0,0.05237535998295292,0.039609903472904856,0.0656667555653296
2026-03-17T09:20:42.313934+00:00,1773739242.313854,True,True,GPS_RAW_INT,97248000,97435,4,21,0.6,0.96,12.8878713,77.6430075,952.04,865.441,0.005,0.02,0.038876879999999996,0.07200000000000001,170.62,170.62,-0.06,0.01,0.01,0.594,0.521,0.13,0.0,0.0,12.8878689,77.6430041,1003.2811952854508,337.1466762248258,0.2353596,0.36284605000000003,138,0.138,255,0,1,1,126,True,0,0,-0.0,0.0,0.0537473117368996,0.03896152924356982,0.06638353922427616
2026-03-17T09:20:42.414001+00:00,1773739242.413926,True,True,GPS_RAW_INT,97448000,97535,4,21,0.6,0.96,12.8878713,77.6430076,952.01,865.411,0.004,0.07,0.13606908,0.25200000000000006,170.62,170.62,-0.06,0.01,0.01,0.593,0.52,0.156,0.0,0.0,12.8878689,77.6430041,1003.3605342947783,337.1480980825886,0.10787315,0.3726527,137,0.137,255,0,1,1,125,True,0,0,-0.0,0.0,0.04764950507593411,0.042137651806200674,0.06360862389426514
2026-03-17T09:20:42.514070+00:00,1773739242.513998,True,True,GPS_RAW_INT,97448000,97635,4,21,0.6,0.96,12.8878713,77.6430076,952.01,865.411,0.003,0.07,0.13606908,0.25200000000000006,170.62,170.62,-0.05,0.01,0.01,0.593,0.52,0.156,0.0,0.0,12.8878689,77.6430041,1003.3357642256899,337.1565988691582,0.44129925000000003,0.38245935,140,0.14,255,0,1,1,127,True,0,0,-0.0,0.0,0.0629044756018681,0.03673189872006343,0.07284370552303758
2026-03-17T09:20:42.614229+00:00,1773739242.614152,True,True,GPS_RAW_INT,97648000,97735,4,21,0.6,0.96,12.8878713,77.6430077,952.01,865.411,0.004,0.08,0.15550751999999998,0.28800000000000003,170.62,170.62,-0.05,0.01,0.01,0.59,0.519,0.131,0.0,0.0,12.8878689,77.6430041,1003.4175578107702,337.16685572500796,0.06864655,0.3726527,137,0.137,255,0,1,1,128,True,0,0,-0.0,0.0,0.05102384404285312,0.04172278222149896,0.06591072156494744
2026-03-17T09:20:42.714330+00:00,1773739242.714262,True,True,GPS_RAW_INT,97648000,97835,4,21,0.6,0.96,12.8878713,77.6430077,952.01,865.411,0.006,0.08,0.15550751999999998,0.28800000000000003,170.62,170.62,-0.05,0.01,0.01,0.59,0.519,0.131,0.0,0.0,12.8878689,77.6430041,1003.1328181540621,337.172972309799,0.24516625,0.32361945000000003,136,0.136,255,0,1,1,125,True,0,0,-0.0,0.0,0.052542304171827856,0.03782271976693739,0.06473987842321884
2026-03-17T09:20:42.815915+00:00,1773739242.815714,True,True,GPS_RAW_INT,97848000,97935,4,21,0.6,0.96,12.8878713,77.6430077,952.01,865.411,0.007,0.02,0.038876879999999996,0.07200000000000001,170.62,170.62,-0.05,0.01,0.01,0.586,0.518,0.117,0.0,0.0,12.8878689,77.6430041,1003.4610920869893,337.1830723284427,0.42168595,0.18632635,137,0.137,255,0,1,1,126,True,0,0,-0.0,0.0,0.06039804291951095,0.02351118691542048,0.06481280350886641
2026-03-17T09:20:42.919164+00:00,1773739242.919036,True,True,GPS_RAW_INT,97848000,98035,4,21,0.6,0.96,12.8878713,77.6430077,952.01,865.411,0.009,0.02,0.038876879999999996,0.07200000000000001,170.62,170.62,-0.06,0.01,0.0,0.586,0.518,0.117,0.0,0.0,12.8878689,77.6430041,1003.2029546802594,337.1914940625637,0.26477955,0.44129925000000003,136,0.136,255,0,1,1,125,True,0,0,-0.0,0.0,0.06259732640232399,0.033292922044110655,0.07090023928700323
2026-03-17T09:20:43.019185+00:00,1773739243.019110,True,True,GPS_RAW_INT,98048000,98135,4,21,0.6,0.96,12.8878712,77.6430077,952.0,865.401,0.011,0.07,0.13606908,0.25200000000000006,170.62,170.62,-0.05,0.0,0.0,0.583,0.517,0.112,0.0,0.0,12.8878689,77.6430041,1003.1594214006595,337.1951906764756,0.0588399,0.5687857000000001,133,0.133,255,0,1,1,124,True,0,0,-0.0,0.0,0.054792278258846035,0.050774655089406096,0.07470113356732255
2026-03-17T09:20:43.119246+00:00,1773739243.119178,True,True,GPS_RAW_INT,98048000,98235,4,21,0.6,0.96,12.8878712,77.6430077,952.0,865.401,0.012,0.07,0.13606908,0.25200000000000006,170.62,170.62,-0.05,0.01,0.0,0.583,0.517,0.112,0.0,0.0,12.8878689,77.6430041,1003.3133214943895,337.1988207844163,0.0588399,0.50013915,136,0.136,255,0,1,1,125,True,0,0,-0.0,0.0,0.048488087663454665,0.057632195337145885,0.07531642971249901
2026-03-17T09:20:43.219321+00:00,1773739243.219246,True,True,GPS_RAW_INT,98248000,98335,4,21,0.6,0.96,12.8878712,77.6430077,951.99,865.391,0.014,0.02,0.038876879999999996,0.07200000000000001,170.62,170.62,-0.05,0.0,0.0,0.58,0.517,0.152,0.0,0.0,12.8878689,77.6430041,1003.2412091094792,337.2032305891861,0.06864655,0.40207265000000003,137,0.137,255,0,1,1,124,True,0,0,-0.0,0.0,0.04290327839257367,0.0560965652641887,0.07062234725120697
2026-03-17T09:20:43.319427+00:00,1773739243.319322,True,True,GPS_RAW_INT,98248000,98435,4,21,0.6,0.96,12.8878712,77.6430077,951.99,865.391,0.015,0.02,0.038876879999999996,0.07200000000000001,170.62,170.62,-0.05,0.0,0.0,0.58,0.517,0.152,0.0,0.0,12.8878689,77.6430041,1003.412896782203,337.2094843980856,0.10787315,0.2549729,138,0.138,255,0,1,1,124,True,0,0,-0.0,0.0,0.03823622746954722,0.04597554230791351,0.05979765531866364
2026-03-17T09:20:43.419476+00:00,1773739243.419395,True,True,GPS_RAW_INT,98448000,98535,4,21,0.6,0.96,12.8878712,77.6430077,951.99,865.391,0.017,0.01,0.019438439999999998,0.036000000000000004,170.62,170.62,-0.04,0.0,0.0,0.577,0.516,0.09,0.0,0.0,12.8878689,77.6430041,1003.1829585287267,337.2175714033515,0.0784532,0.16671305,137,0.137,255,0,1,1,124,True,0,0,-0.0,0.0,0.03165336490651859,0.03554311469055561,0.0475946269216517
2026-03-17T09:20:43.519573+00:00,1773739243.519483,True,True,GPS_RAW_INT,98448000,98635,4,21,0.6,0.96,12.8878712,77.6430077,951.99,865.391,0.018,0.01,0.019438439999999998,0.036000000000000004,170.62,170.62,-0.04,0.0,0.0,0.577,0.516,0.09,0.0,0.0,12.8878689,77.6430041,1003.2289458043178,337.2249019853866,0.06864655,0.24516625,137,0.137,255,0,1,1,125,True,0,0,-0.0,0.0,0.028942694489882646,0.03383127334218239,0.044522293520079845
2026-03-17T09:20:43.619749+00:00,1773739243.619568,True,True,GPS_RAW_INT,98648000,98735,4,21,0.6,0.96,12.8878713,77.6430078,951.99,865.391,0.019,0.09,0.17494595999999998,0.324,170.62,170.62,-0.04,0.0,0.0,0.575,0.515,0.076,0.0,0.0,12.8878689,77.6430041,1003.3718141368832,337.2310726496063,0.0,0.28439285000000003,138,0.138,255,0,1,1,125,True,0,0,-0.0,0.0,0.024354066942612503,0.03661575708287321,0.04397538224276431
2026-03-17T09:20:43.719882+00:00,1773739243.719685,True,True,GPS_RAW_INT,98648000,98835,4,21,0.6,0.96,12.8878713,77.6430078,951.99,865.391,0.019,0.09,0.17494595999999998,0.324,170.62,170.62,-0.03,0.0,0.0,0.575,0.515,0.076,0.0,0.0,12.8878689,77.6430041,1003.2835176146816,337.2369213923005,-0.0588399,0.24516625,137,0.137,255,0,1,1,124,True,0,0,-0.0,0.0,0.01732019896631825,0.03749902925733688,0.041305768210692546
2026-03-17T09:20:43.819860+00:00,1773739243.819766,True,True,GPS_RAW_INT,98848000,98935,4,20,0.61,0.96,12.8878713,77.6430078,951.99,865.391,0.018,0.04,0.07775375999999999,0.14400000000000002,170.62,170.62,-0.02,0.01,0.0,0.572,0.514,0.115,0.0,0.0,12.8878689,77.6430041,1003.338702860031,337.24329309962945,-0.08825985,0.30400615,139,0.139,255,0,1,1,123,True,0,0,-0.0,0.0,0.01276475022243867,0.042037279272818556,0.04393258126837289
2026-03-17T09:20:43.919920+00:00,1773739243.919839,True,True,GPS_RAW_INT,98848000,99035,4,20,0.61,0.96,12.8878713,77.6430078,951.99,865.391,0.018,0.04,0.07775375999999999,0.14400000000000002,170.62,170.62,-0.02,0.01,0.0,0.572,0.514,0.115,0.0,0.0,12.8878689,77.6430041,1003.4447819235257,337.2501527495847,-0.04903325,0.3334261,139,0.139,255,0,1,1,123,True,0,0,-0.0,0.0,0.012886486828464216,0.04553290966315246,0.04732132083081562
2026-03-17T09:20:44.020000+00:00,1773739244.019907,True,True,GPS_RAW_INT,99048000,99135,4,20,0.61,0.96,12.8878714,77.6430078,951.99,865.39,0.019,0.07,0.13606908,0.25200000000000006,170.62,170.62,-0.02,0.01,0.0,0.57,0.513,0.12,0.0,0.0,12.8878689,77.6430041,1003.3840775974253,337.2575903992215,0.0196133,0.392266,138,0.138,255,0,1,1,123,True,0,0,-0.0,0.0,0.018206719252893674,0.049354892612585174,0.052605988734682134
2026-03-17T09:20:44.120060+00:00,1773739244.119982,True,True,GPS_RAW_INT,99048000,99235,4,20,0.61,0.96,12.8878714,77.6430078,951.99,865.39,0.02,0.07,0.13606908,0.25200000000000006,170.62,170.62,-0.02,0.0,0.0,0.57,0.513,0.12,0.0,0.0,12.8878689,77.6430041,1003.3920488539308,337.2643629602135,0.1765197,0.42168595,139,0.139,255,0,1,1,122,True,0,0,-0.0,0.0,0.030968123793482006,0.049643277564559815,0.058510509300811545
2026-03-17T09:20:44.220133+00:00,1773739244.220055,True,True,GPS_RAW_INT,99248000,99335,4,20,0.61,0.96,12.8878713,77.6430077,951.99,865.391,0.02,0.04,0.07775375999999999,0.14400000000000002,170.62,170.62,-0.01,0.0,0.0,0.568,0.513,0.164,0.0,0.0,12.8878689,77.6430041,1003.216069348247,337.2696264288227,0.26477955,0.38245935,140,0.14,255,0,1,1,122,True,0,0,-0.0,0.0,0.04278501686062429,0.04553370085352165,0.06248100176199085
2026-03-17T09:20:44.320202+00:00,1773739244.320128,True,True,GPS_RAW_INT,99248000,99435,4,20,0.61,0.96,12.8878713,77.6430077,951.99,865.391,0.02,0.04,0.07775375999999999,0.14400000000000002,170.62,170.62,-0.02,0.0,0.0,0.568,0.513,0.164,0.0,0.0,12.8878689,77.6430041,1003.1860243412624,337.2750431091788,0.3530394,0.42168595,139,0.139,255,0,1,1,123,True,0,0,-0.0,0.0,0.05587555757245004,0.04315829180313889,0.070602521806215
2026-03-17T09:20:44.420275+00:00,1773739244.420202,True,True,GPS_RAW_INT,99448000,99535,4,20,0.61,0.96,12.8878711,77.6430077,951.98,865.381,0.017,0.05,0.0971922,0.18000000000000002,170.62,170.62,-0.01,0.0,0.0,0.566,0.512,0.159,0.0,0.0,12.8878689,77.6430041,1003.2749332674567,337.27976114434637,0.51975245,0.5099458,136,0.136,255,0,1,1,123,True,0,0,-0.0,0.0,0.07531212690819104,0.042751246460979775,0.08660014742136937
2026-03-17T09:20:44.520340+00:00,1773739244.520268,True,True,GPS_RAW_INT,99448000,99635,4,20,0.61,0.96,12.8878711,77.6430077,951.98,865.381,0.015,0.05,0.0971922,0.18000000000000002,170.62,170.62,-0.02,0.0,0.0,0.566,0.512,0.159,0.0,0.0,12.8878689,77.6430041,1003.1572057363124,337.2843034234952,0.65704555,0.4707192,134,0.134,255,0,1,1,123,True,0,0,-0.0,0.0,0.0939558312460158,0.0370652210742178,0.10100261797800311
2026-03-17T09:20:44.620409+00:00,1773739244.620335,True,True,GPS_RAW_INT,99648000,99735,4,20,0.61,0.96,12.8878709,77.6430077,951.95,865.351,0.01,0.03,0.05831532,0.108,170.62,170.62,-0.02,0.0,0.0,0.564,0.512,0.128,0.0,0.0,12.8878689,77.6430041,1003.4141231321232,337.291813256232,0.7256921000000001,0.5687857000000001,136,0.136,255,0,1,1,123,True,0,0,-0.0,0.0,0.11148961925169265,0.037507271959261346,0.11762963338680177
2026-03-17T09:20:44.720478+00:00,1773739244.720401,True,True,GPS_RAW_INT,99648000,99835,4,20,0.61,0.96,12.8878709,77.6430077,951.95,865.351,0.006,0.03,0.05831532,0.108,170.62,170.62,-0.01,0.0,0.01,0.564,0.512,0.128,0.0,0.0,12.8878689,77.6430041,1003.2461144352819,337.3056157128385,0.0,0.50013915,137,0.137,255,0,1,1,125,True,0,0,-0.0,0.0,0.07972343594482967,0.051003725134084896,0.09464251801596703
2026-03-17T09:20:44.821525+00:00,1773739244.821312,True,True,GPS_RAW_INT,99848000,99935,4,20,0.61,0.96,12.8878709,77.6430077,951.94,865.341,0.0,0.02,0.038876879999999996,0.07200000000000001,170.62,170.62,-0.01,0.0,0.0,0.562,0.512,0.135,0.0,0.0,12.8878689,77.6430041,1003.3362501767282,337.3182363037308,0.1176798,0.14709975,135,0.135,255,0,1,1,125,True,0,20,-0.027000000000000003,0.0,0.04893689975634635,0.04067085334719221,0.06363126959091346
2026-03-17T09:20:44.921475+00:00,1773739244.921395,True,True,GPS_RAW_INT,99848000,100035,4,20,0.61,0.96,12.8878709,77.6430077,951.94,865.341,-0.003,0.02,0.038876879999999996,0.07200000000000001,170.62,170.62,-0.02,0.0,0.0,0.562,0.512,0.135,0.0,0.0,12.8878689,77.6430041,1003.3585651368271,337.32858496319204,0.5295591,0.46091255,137,0.137,255,0,1,1,125,True,0,0,-0.0,0.0,0.07043768659213939,0.038262715542427814,0.0801592358567196
2026-03-17T09:20:45.021547+00:00,1773739245.021468,True,True,GPS_RAW_INT,100048000,100135,4,20,0.61,0.96,12.8878709,77.6430077,951.93,865.331,-0.01,0.07,0.13606908,0.25200000000000006,170.62,170.62,-0.01,0.0,0.01,0.56,0.511,0.139,0.0,0.0,12.8878689,77.6430041,1003.4343579250935,337.34360406937026,-0.0784532,0.06864655,138,0.138,255,0,1,1,126,True,0,0,-0.0,0.0,0.04012163250371374,0.029023312833056834,0.049518663982063775
2026-03-17T09:20:45.121674+00:00,1773739245.121581,True,True,GPS_RAW_INT,100048000,100235,4,20,0.61,0.96,12.8878709,77.6430077,951.93,865.331,-0.015,0.07,0.13606908,0.25200000000000006,170.62,170.62,-0.02,0.0,0.0,0.56,0.511,0.139,0.0,0.0,12.8878689,77.6430041,1003.2473407670657,337.3566790319595,0.36284605000000003,0.9414384,136,0.136,255,0,1,1,125,True,0,0,-0.0,0.0,0.06699584000504993,0.062175652405050345,0.09140161010603638
2026-03-17T09:20:45.221728+00:00,1773739245.221654,True,True,GPS_RAW_INT,100248000,100335,4,20,0.61,0.96,12.8878709,77.6430077,951.93,865.331,-0.02,0.0,0.0,0.0,170.62,170.62,-0.03,0.0,0.02,0.558,0.511,0.117,0.0,0.0,12.8878689,77.6430041,1003.2955401013286,337.36623458253484,0.93163175,0.1176798,135,0.135,255,0,1,1,125,True,0,0,-0.0,0.0,0.0960402567974332,0.022651897587994296,0.09867542444830878
2026-03-17T09:20:45.321969+00:00,1773739245.321890,True,True,GPS_RAW_INT,100248000,100435,4,20,0.61,0.96,12.8878709,77.6430077,951.93,865.331,-0.024,0.0,0.0,0.0,170.62,170.62,-0.03,0.0,0.01,0.558,0.511,0.117,0.0,0.0,12.8878689,77.6430041,1003.4531210097592,337.3751580000571,1.04931155,0.2745862,136,0.136,255,0,1,1,124,True,0,0,-0.0,0.0,0.12413104511784565,0.0046281531910256565,0.12421729414219355
2026-03-17T09:20:45.422037+00:00,1773739245.421963,True,True,GPS_RAW_INT,100448000,100535,4,20,0.61,0.96,12.8878708,77.6430077,951.92,865.321,-0.029,0.07,0.13606908,0.25200000000000006,170.62,170.62,-0.02,-0.01,0.01,0.555,0.51,0.149,0.0,0.0,12.8878689,77.6430041,1003.3724273095893,337.3889329977577,-0.73549875,0.6276256,136,0.136,255,0,1,1,124,True,0,0,-0.0,0.0,0.048958706579852955,0.05540269124762062,0.07393519559351497
2026-03-17T09:20:45.522099+00:00,1773739245.522033,True,True,GPS_RAW_INT,100448000,100635,4,20,0.61,0.96,12.8878708,77.6430077,951.92,865.321,-0.033,0.07,0.13606908,0.25200000000000006,170.62,170.62,-0.02,0.0,0.02,0.555,0.51,0.149,0.0,0.0,12.8878689,77.6430041,1003.6609840199945,337.39888410893275,-0.26477955,0.1372931,137,0.137,255,0,1,1,124,True,0,0,-0.0,0.0,0.018148695476893913,0.047704017033379204,0.05103967465250893
2026-03-17T09:20:45.622226+00:00,1773739245.622127,True,True,GPS_RAW_INT,100648000,100735,4,20,0.61,0.96,12.8878706,77.6430077,951.92,865.321,-0.036,0.05,0.0971922,0.18000000000000002,170.62,170.62,-0.03,0.0,0.02,0.553,0.51,0.152,0.0,0.0,12.8878689,77.6430041,1003.2222009921563,337.40789750177066,0.588399,0.14709975,137,0.137,255,0,1,1,124,True,0,0,-0.0,0.0,0.04764949081207796,0.023569878800330447,0.053160259229170136
2026-03-17T09:20:45.722287+00:00,1773739245.722204,True,True,GPS_RAW_INT,100648000,100835,4,20,0.61,0.96,12.8878706,77.6430077,951.92,865.321,-0.038,0.05,0.0971922,0.18000000000000002,170.62,170.62,-0.03,0.0,0.02,0.553,0.51,0.152,0.0,0.0,12.8878689,77.6430041,1003.5690087640594,337.42253408580655,0.22555295,-0.20593965,135,0.135,255,0,1,1,124,True,0,0,-0.0,0.0,0.03692257958767455,-0.0025152725937749557,0.037008154231590054
2026-03-17T09:20:45.822362+00:00,1773739245.822278,True,True,GPS_RAW_INT,100848000,100935,4,20,0.61,0.96,12.8878705,77.6430076,951.92,865.321,-0.041,0.11,0.21382284,0.396,181.59,181.59,-0.04,0.0,0.02,0.552,0.509,0.151,0.0,0.0,12.8878689,77.6430041,1003.5150502964225,337.4323078109753,0.196133,0.36284605000000003,135,0.135,255,0,1,1,125,True,0,0,-0.0,0.0,0.042044933377889115,0.014312901449612656,0.04441436221153534
2026-03-17T09:20:45.922748+00:00,1773739245.922641,True,True,GPS_RAW_INT,100848000,101035,4,20,0.61,0.96,12.8878705,77.6430076,951.92,865.321,-0.042,0.11,0.21382284,0.396,181.59,181.59,-0.04,-0.01,0.02,0.552,0.509,0.151,0.0,0.0,12.8878689,77.6430041,1003.2274805455964,337.44284241249375,0.46091255,0.5099458,136,0.136,255,0,1,1,123,True,0,0,-0.0,0.0,0.06360212612809563,0.026703926848116993,0.06898065059945266
2026-03-17T09:20:46.022923+00:00,1773739246.022739,True,True,GPS_RAW_INT,101048000,101135,4,19,0.63,0.96,12.8878704,77.6430075,951.92,865.321,-0.044,0.04,0.07775375999999999,0.14400000000000002,181.59,181.59,-0.04,0.0,0.02,0.55,0.509,0.131,0.0,0.0,12.8878689,77.6430041,1003.403455193954,337.44823718326734,-0.14709975,0.04903325,135,0.135,255,0,1,1,122,True,0,0,-0.0,0.0,0.031618282687392085,0.02247626331858503,0.03879301757876292
2026-03-17T09:20:46.123082+00:00,1773739246.122843,True,True,GPS_RAW_INT,101048000,101235,4,19,0.63,0.96,12.8878704,77.6430075,951.92,865.321,-0.045,0.04,0.07775375999999999,0.14400000000000002,181.59,181.59,-0.05,-0.01,0.02,0.55,0.509,0.131,0.0,0.0,12.8878689,77.6430041,1003.4917501288542,337.45343457753506,0.588399,0.73549875,136,0.136,255,0,1,1,122,True,0,0,-0.0,0.0,0.06962618833718497,0.04137443759660595,0.08099166740350881
2026-03-17T09:20:46.223262+00:00,1773739246.223053,True,True,GPS_RAW_INT,101248000,101335,4,19,0.63,0.96,12.8878703,77.6430075,951.92,865.321,-0.046,0.08,0.15550751999999998,0.28800000000000003,181.59,181.59,-0.05,0.0,0.02,0.549,0.508,0.151,0.0,0.0,12.8878689,77.6430041,1003.2851165391305,337.46120276287616,0.2353596,0.3138128,137,0.137,255,0,1,1,124,True,0,0,-0.0,0.0,0.06304579360219961,0.03740137759804627,0.07330508261480094
2026-03-17T09:20:46.323381+00:00,1773739246.323168,True,True,GPS_RAW_INT,101248000,101435,4,19,0.63,0.96,12.8878703,77.6430075,951.92,865.321,-0.047,0.08,0.15550751999999998,0.28800000000000003,181.59,181.59,-0.05,0.0,0.02,0.549,0.508,0.151,0.0,0.0,12.8878689,77.6430041,1003.3991630966831,337.4678559286474,0.08825985,0.04903325,137,0.137,255,0,1,1,125,True,0,0,-0.0,0.0,0.04454068772906816,0.023492417577935014,0.050356395294286434
2026-03-17T09:20:46.423330+00:00,1773739246.423251,True,True,GPS_RAW_INT,101448000,101535,4,19,0.63,0.96,12.8878703,77.6430074,951.92,865.321,-0.048,0.03,0.05831532,0.108,181.59,181.59,-0.05,-0.01,0.02,0.548,0.508,0.14,0.0,0.0,12.8878689,77.6430041,1003.5150502964225,337.4732018683899,0.36284605000000003,0.32361945000000003,137,0.137,255,0,1,1,125,True,0,0,-0.0,0.0,0.05515194900497852,0.024071951009568875,0.06017637663115681
2026-03-17T09:20:46.523400+00:00,1773739246.523326,True,True,GPS_RAW_INT,101448000,101635,4,19,0.63,0.96,12.8878703,77.6430074,951.92,865.321,-0.047,0.03,0.05831532,0.108,181.59,181.59,-0.05,-0.01,0.02,0.548,0.508,0.14,0.0,0.0,12.8878689,77.6430041,1003.6149962982479,337.47555211889267,0.18632635,0.5491724,137,0.137,255,0,1,1,125,True,0,0,-0.0,0.0,0.0569438864520821,0.041259010532519666,0.07032006935712015
2026-03-17T09:20:46.623475+00:00,1773739246.623400,True,True,GPS_RAW_INT,101648000,101735,4,19,0.63,0.96,12.8878703,77.6430074,951.94,865.341,-0.045,0.05,0.0971922,0.18000000000000002,181.59,181.59,-0.05,-0.01,0.02,0.547,0.508,0.16,0.0,0.0,12.8878689,77.6430041,1003.5352846915276,337.47836984655555,0.02941995,0.2745862,137,0.137,255,0,1,1,125,True,0,0,-0.0,0.0,0.04277982870130899,0.0399309091242398,0.058520007238564466
2026-03-17T09:20:46.723541+00:00,1773739246.723470,True,True,GPS_RAW_INT,101648000,101835,4,19,0.63,0.96,12.8878703,77.6430074,951.94,865.341,-0.043,0.05,0.0971922,0.18000000000000002,181.59,181.59,-0.06,0.0,0.02,0.547,0.508,0.16,0.0,0.0,12.8878689,77.6430041,1003.466610528373,337.4816163046992,0.0980665,0.3530394,136,0.136,255,0,1,1,125,True,0,0,-0.0,0.0,0.03984643723898755,0.041938431779500907,0.05784955160383203
2026-03-17T09:20:46.823763+00:00,1773739246.823588,True,True,GPS_RAW_INT,101848000,101935,4,19,0.63,0.96,12.8878703,77.6430074,951.95,865.35,-0.04,0.02,0.038876879999999996,0.07200000000000001,181.59,181.59,-0.06,0.0,0.02,0.546,0.507,0.143,0.0,0.0,12.8878689,77.6430041,1003.5573586185071,337.4882406274289,0.3334261,0.2941995,136,0.136,255,0,1,1,126,True,0,0,-0.0,0.0,0.04995279389955831,0.03435393444803981,0.06062569117488036
2026-03-17T09:20:46.923810+00:00,1773739246.923664,True,True,GPS_RAW_INT,101848000,102035,4,19,0.63,0.96,12.8878703,77.6430074,951.95,865.35,-0.037,0.02,0.038876879999999996,0.07200000000000001,181.59,181.59,-0.06,0.0,0.02,0.546,0.507,0.143,0.0,0.0,12.8878689,77.6430041,1003.3390739064555,337.49705244652273,0.51975245,0.4314926,131,0.131,255,0,1,1,126,True,0,0,-0.0,0.0,0.06980709754753132,0.033119751989739904,0.0772654440217128
2026-03-17T09:20:47.023807+00:00,1773739247.023731,True,True,GPS_RAW_INT,102048000,102135,4,19,0.63,0.96,12.8878703,77.6430075,951.94,865.34,-0.037,0.1,0.1943844,0.36000000000000004,98.84,98.84,-0.05,0.0,0.02,0.545,0.507,0.117,0.0,0.0,12.8878689,77.6430041,1003.4567999677814,337.5065517858251,0.588399,0.57859235,129,0.129,255,0,1,1,126,True,0,0,-0.0,0.0,0.089205193807955,0.03906123174751189,0.09738247495287662
2026-03-17T09:20:47.123896+00:00,1773739247.123811,True,True,GPS_RAW_INT,102048000,102235,4,19,0.63,0.96,12.8878703,77.6430075,951.94,865.34,-0.036,0.1,0.1943844,0.36000000000000004,98.84,98.84,-0.05,0.0,0.01,0.545,0.507,0.117,0.0,0.0,12.8878689,77.6430041,1003.5886300890388,337.5143148290972,0.392266,0.42168595,130,0.13,255,0,1,1,125,True,0,0,-0.0,0.0,0.08631639256857498,0.03842321132676773,0.09448207657917876
2026-03-17T09:20:47.223954+00:00,1773739247.223880,True,True,GPS_RAW_INT,102248000,102335,4,20,0.61,0.96,12.8878703,77.6430075,951.94,865.341,-0.035,0.11,0.21382284,0.396,148.64,148.64,-0.05,0.0,0.02,0.543,0.506,0.154,0.0,0.0,12.8878689,77.6430041,1003.4292078118771,337.52038870116803,0.2941995,0.2157463,132,0.132,255,0,1,1,125,True,0,0,-0.0,0.0,0.07422218897908076,0.02871722281483889,0.07958399476680898
2026-03-17T09:20:47.324563+00:00,1773739247.324418,True,True,GPS_RAW_INT,102248000,102435,4,20,0.61,0.96,12.8878703,77.6430075,951.94,865.341,-0.034,0.11,0.21382284,0.396,148.64,148.64,-0.04,0.0,0.02,0.543,0.506,0.154,0.0,0.0,12.8878689,77.6430041,1003.5328320356366,337.5245089672869,0.10787315,0.10787315,132,0.132,255,0,1,1,125,True,0,0,-0.0,0.0,0.05383581222282568,0.021069492078934854,0.057811920692497715
2026-03-17T09:20:47.424641+00:00,1773739247.424495,True,True,GPS_RAW_INT,102448000,102535,4,21,0.6,0.96,12.8878703,77.6430076,951.95,865.35,-0.033,0.04,0.07775375999999999,0.14400000000000002,148.64,148.64,-0.05,0.0,0.02,0.542,0.505,0.102,0.0,0.0,12.8878689,77.6430041,1003.4954290994763,337.5304762701153,-0.0392266,0.24516625,132,0.132,255,0,1,1,125,True,0,0,-0.0,0.0,0.036307788089271334,0.02756826176556122,0.045587986714812685
2026-03-17T09:20:47.524791+00:00,1773739247.524665,True,True,GPS_RAW_INT,102448000,102635,4,21,0.6,0.96,12.8878703,77.6430076,951.95,865.35,-0.031,0.04,0.07775375999999999,0.14400000000000002,148.64,148.64,-0.04,0.0,0.02,0.542,0.505,0.102,0.0,0.0,12.8878689,77.6430041,1003.3562422138488,337.53947501701236,0.0,0.16671305,131,0.131,255,0,1,1,125,True,0,0,-0.0,0.0,0.026011953470187553,0.026202837488977563,0.03692167948250689
2026-03-17T09:20:47.624864+00:00,1773739247.624737,True,True,GPS_RAW_INT,102648000,102735,4,21,0.6,0.96,12.8878702,77.6430076,951.94,865.341,-0.031,0.03,0.05831532,0.108,148.64,148.64,-0.05,0.0,0.02,0.54,0.504,0.146,0.0,0.0,12.8878689,77.6430041,1003.3556290595639,337.5484082071463,0.12748645,0.3334261,131,0.131,255,0,1,1,127,True,0,0,-0.0,0.0,0.03080490357463481,0.031793751769836634,0.044269456014779975
2026-03-17T09:20:47.724940+00:00,1773739247.724813,True,True,GPS_RAW_INT,102648000,102835,4,21,0.6,0.96,12.8878702,77.6430076,951.94,865.341,-0.031,0.03,0.05831532,0.108,148.64,148.64,-0.05,0.0,0.02,0.54,0.504,0.146,0.0,0.0,12.8878689,77.6430041,1003.6468810987186,337.5545388787634,0.1372931,0.28439285000000003,129,0.129,255,0,1,1,127,True,0,0,-0.0,0.0,0.033137641130102216,0.03221269681318932,0.04621429536026596
2026-03-17T09:20:47.825720+00:00,1773739247.825556,True,True,GPS_RAW_INT,102848000,102935,4,21,0.6,0.96,12.8878703,77.6430076,951.95,865.35,-0.03,0.01,0.019438439999999998,0.036000000000000004,148.64,148.64,-0.04,0.0,0.02,0.538,0.503,0.124,0.0,0.0,12.8878689,77.6430041,1003.3973236269221,337.5576747797145,0.1372931,0.3726527,131,0.131,255,0,1,1,127,True,0,0,-0.0,0.0,0.03668663523337519,0.037525750245540765,0.05247943536507828
2026-03-17T09:20:47.925886+00:00,1773739247.925662,True,True,GPS_RAW_INT,102848000,103035,4,21,0.6,0.96,12.8878703,77.6430076,951.95,865.35,-0.029,0.01,0.019438439999999998,0.036000000000000004,148.64,148.64,-0.04,0.0,0.02,0.538,0.503,0.124,0.0,0.0,12.8878689,77.6430041,1003.3562422138488,337.5568935870723,0.20593965,0.26477955,132,0.132,255,0,1,1,125,True,0,0,-0.0,0.0,0.04012456098199217,0.032992614873535026,0.051947021379392035
2026-03-17T09:20:48.025897+00:00,1773739248.025745,True,True,GPS_RAW_INT,103048000,103135,4,20,0.61,0.96,12.8878703,77.6430076,951.95,865.35,-0.031,0.03,0.05831532,0.108,148.64,148.64,-0.04,0.0,0.02,0.537,0.502,0.129,0.0,0.0,12.8878689,77.6430041,1003.409586764314,337.5532083356825,0.28439285000000003,0.2745862,130,0.13,255,0,1,1,123,True,20,0,-0.0,0.026000000000000002,0.05075494176101939,0.03834721963300551,0.06361268243633839
2026-03-17T09:20:48.125896+00:00,1773739248.125816,True,True,GPS_RAW_INT,103048000,103235,4,20,0.61,0.96,12.8878703,77.6430076,951.95,865.35,-0.033,0.03,0.05831532,0.108,148.64,148.64,-0.04,0.0,0.02,0.537,0.502,0.129,0.0,0.0,12.8878689,77.6430041,1003.2428092385225,337.54889597098406,0.28439285000000003,0.38245935,133,0.133,255,0,1,1,123,True,0,0,-0.0,0.0,0.05587197837428851,0.0383054873318031,0.06774207206148843
2026-03-17T09:20:48.225959+00:00,1773739248.225885,True,True,GPS_RAW_INT,103248000,103335,4,20,0.61,0.96,12.8878704,77.6430077,951.93,865.331,-0.035,0.05,0.0971922,0.18000000000000002,148.64,148.64,-0.04,0.0,0.02,0.536,0.501,0.13,0.0,0.0,12.8878689,77.6430041,1003.2201227803926,337.5472859948384,0.4118793,0.5099458,133,0.133,255,0,1,1,124,True,0,0,-0.0,0.0,0.06914901684362429,0.04249727287715655,0.08116406059602577
2026-03-17T09:20:48.326040+00:00,1773739248.325959,True,True,GPS_RAW_INT,103248000,103435,4,20,0.61,0.96,12.8878704,77.6430077,951.93,865.331,-0.038,0.05,0.0971922,0.18000000000000002,148.64,148.64,-0.04,0.0,0.02,0.536,0.501,0.13,0.0,0.0,12.8878689,77.6430041,1003.3270526190778,337.5505290630531,0.392266,0.6276256,135,0.135,255,0,1,1,125,True,0,0,-0.0,0.0,0.0788780280407754,0.05214625607976449,0.09455673075322414
2026-03-17T09:20:48.426105+00:00,1773739248.426032,True,True,GPS_RAW_INT,103448000,103535,4,20,0.61,0.96,12.8878704,77.6430078,951.92,865.321,-0.042,0.03,0.05831532,0.108,148.64,148.64,-0.04,0.0,0.02,0.535,0.501,0.152,0.0,0.0,12.8878689,77.6430041,1003.2483275730758,337.5580950043867,0.36284605000000003,0.6472389000000001,134,0.134,255,0,1,1,124,True,0,0,-0.0,0.0,0.0836025205329782,0.05982287967478978,0.10280154849053305
2026-03-17T09:20:48.526175+00:00,1773739248.526105,True,True,GPS_RAW_INT,103448000,103635,4,20,0.61,0.96,12.8878704,77.6430078,951.92,865.321,-0.045,0.03,0.05831532,0.108,148.64,148.64,-0.04,0.0,0.02,0.535,0.501,0.152,0.0,0.0,12.8878689,77.6430041,1003.3472872558083,337.568655826763,0.30400615,0.588399,132,0.132,255,0,1,1,124,True,0,0,-0.0,0.0,0.08179028403133415,0.06256054312635292,0.10297316212582082
2026-03-17T09:20:48.626252+00:00,1773739248.626179,True,True,GPS_RAW_INT,103648000,103735,4,20,0.61,0.96,12.8878705,77.6430079,951.92,865.321,-0.049,0.02,0.038876879999999996,0.07200000000000001,148.64,148.64,-0.03,0.01,0.02,0.534,0.5,0.14,0.0,0.0,12.8878689,77.6430041,1003.4733552937325,337.57926039891254,0.26477955,0.48052585000000003,132,0.132,255,0,1,1,124,True,0,0,-0.0,0.0,0.0759597649913854,0.05906522547581879,0.09622155038272774
2026-03-17T09:20:48.726321+00:00,1773739248.726251,True,True,GPS_RAW_INT,103648000,103835,4,20,0.61,0.96,12.8878705,77.6430079,951.92,865.321,-0.051,0.02,0.038876879999999996,0.07200000000000001,148.64,148.64,-0.03,0.01,0.02,0.534,0.5,0.14,0.0,0.0,12.8878689,77.6430041,1003.4709026513169,337.589702928645,0.26477955,0.4511059,133,0.133,255,0,1,1,124,True,0,0,-0.0,0.0,0.07171792780646087,0.05528048817346187,0.09055050271284523
2026-03-17T09:20:48.826822+00:00,1773739248.826536,True,True,GPS_RAW_INT,103848000,103935,4,21,0.6,0.96,12.8878705,77.6430079,951.91,865.311,-0.051,0.02,0.038876879999999996,0.07200000000000001,148.64,148.64,-0.03,0.01,0.02,0.532,0.499,0.14,0.0,0.0,12.8878689,77.6430041,1003.3470449030666,337.5992330474626,0.2549729,0.3530394,135,0.135,255,0,1,1,124,True,0,0,-0.0,0.0,0.066323347118597,0.04768996081331346,0.08168915922807189
2026-03-17T09:20:48.926709+00:00,1773739248.926621,True,True,GPS_RAW_INT,103848000,104035,4,21,0.6,0.96,12.8878705,77.6430079,951.91,865.311,-0.05,0.02,0.038876879999999996,0.07200000000000001,148.64,148.64,-0.03,0.01,0.02,0.532,0.499,0.14,0.0,0.0,12.8878689,77.6430041,1003.3415265202017,337.60850340009335,0.26477955,0.2157463,135,0.135,255,0,1,1,126,True,0,0,-0.0,0.0,0.0603637712976042,0.035078182897390515,0.06981592798675848
2026-03-17T09:20:49.026774+00:00,1773739249.026696,True,True,GPS_RAW_INT,104048000,104135,4,21,0.6,0.96,12.8878706,77.643008,951.9,865.301,-0.049,0.06,0.11663064,0.216,148.64,148.64,-0.03,0.01,0.02,0.531,0.498,0.132,0.0,0.0,12.8878689,77.6430041,1003.2372909066663,337.61772480171885,0.32361945000000003,0.20593965,134,0.134,255,0,1,1,127,True,0,0,-0.0,0.0,0.059824390820183856,0.025477582897604798,0.06502357239732698
2026-03-17T09:20:49.126837+00:00,1773739249.126765,True,True,GPS_RAW_INT,104048000,104235,4,21,0.6,0.96,12.8878706,77.643008,951.9,865.301,-0.048,0.06,0.11663064,0.216,148.64,148.64,-0.02,0.01,0.02,0.531,0.498,0.132,0.0,0.0,12.8878689,77.6430041,1003.3697316165616,337.62690176889146,0.3726527,0.26477955,135,0.135,255,0,1,1,126,True,0,0,-0.0,0.0,0.06362743549824068,0.021810781390495013,0.0672618817232074
2026-03-17T09:20:49.226912+00:00,1773739249.226838,True,True,GPS_RAW_INT,104248000,104335,4,21,0.6,0.96,12.8878706,77.6430079,951.91,865.311,-0.049,0.09,0.17494595999999998,0.324,148.64,148.64,-0.02,0.0,0.02,0.53,0.497,0.152,0.0,0.0,12.8878689,77.6430041,1003.4874579979762,337.63478248594106,0.2549729,0.16671305,133,0.133,255,0,1,1,125,True,0,0,-0.0,0.0,0.05703231860998517,0.016779706728898402,0.059449507348158064
2026-03-17T09:20:49.327098+00:00,1773739249.327002,True,True,GPS_RAW_INT,104248000,104435,4,21,0.6,0.96,12.8878706,77.6430079,951.91,865.311,-0.049,0.09,0.17494595999999998,0.324,148.64,148.64,-0.02,0.0,0.02,0.53,0.497,0.152,0.0,0.0,12.8878689,77.6430041,1003.4384051896776,337.6422775750997,0.0980665,0.00980665,133,0.133,255,0,1,1,124,True,0,0,-0.0,0.0,0.04052039229874542,0.00850240782229545,0.0414028154938871
2026-03-17T09:20:49.427539+00:00,1773739249.427402,True,True,GPS_RAW_INT,104448000,104535,4,21,0.6,0.96,12.8878705,77.643008,951.89,865.291,-0.049,0.07,0.13606908,0.25200000000000006,148.64,148.64,-0.02,0.01,0.02,0.528,0.497,0.128,0.0,0.0,12.8878689,77.6430041,1003.2354514633179,337.6492651022993,0.0,-0.0196133,134,0.134,255,0,1,1,124,True,0,0,-0.0,0.0,0.024227603962385293,0.004069966934435234,0.02456708009930329
2026-03-17T09:20:49.527625+00:00,1773739249.527483,True,True,GPS_RAW_INT,104448000,104635,4,21,0.6,0.96,12.8878705,77.643008,951.89,865.291,-0.05,0.07,0.13606908,0.25200000000000006,148.64,148.64,-0.02,0.01,0.02,0.528,0.497,0.128,0.0,0.0,12.8878689,77.6430041,1003.4915017547171,337.6550745551399,-0.0392266,0.12748645,135,0.135,255,0,1,1,124,True,0,0,-0.0,0.0,0.01550686293498754,0.01058076680505718,0.01877273086866933
2026-03-17T09:20:49.627650+00:00,1773739249.627554,True,True,GPS_RAW_INT,104648000,104735,4,21,0.6,0.96,12.8878705,77.643008,951.88,865.281,-0.049,0.08,0.15550751999999998,0.28800000000000003,148.64,148.64,-0.03,0.0,0.02,0.527,0.497,0.12,0.0,0.0,12.8878689,77.6430041,1003.2648825929466,337.6595992611461,-0.00980665,0.2549729,136,0.136,255,0,1,1,125,True,0,0,-0.0,0.0,0.014808475562607337,0.02105930499692927,0.0257446164361023
2026-03-17T09:20:49.727717+00:00,1773739249.727625,True,True,GPS_RAW_INT,104648000,104835,4,21,0.6,0.96,12.8878705,77.643008,951.88,865.281,-0.049,0.08,0.15550751999999998,0.28800000000000003,148.64,148.64,-0.03,0.0,0.02,0.527,0.497,0.12,0.0,0.0,12.8878689,77.6430041,1003.3605342947783,337.66397417097164,0.1372931,0.32361945000000003,138,0.138,255,0,1,1,127,True,0,0,-0.0,0.0,0.024272365676388352,0.0279103113089498,0.036988284806014
2026-03-17T09:20:49.828298+00:00,1773739249.828220,True,True,GPS_RAW_INT,104848000,104935,4,21,0.6,0.96,12.8878704,77.643008,951.88,865.28,-0.05,0.12,0.23326128,0.432,166.7,166.7,-0.03,0.0,0.02,0.526,0.497,0.154,0.0,0.0,12.8878689,77.6430041,1003.2538459103318,337.66827396080953,0.2745862,0.44129925000000003,136,0.136,255,0,1,1,126,True,0,0,-0.0,0.0,0.0406153413404226,0.03561378058182555,0.05401802772713435
2026-03-17T09:20:49.928387+00:00,1773739249.928300,True,True,GPS_RAW_INT,104848000,105035,4,21,0.6,0.96,12.8878704,77.643008,951.88,865.28,-0.052,0.12,0.23326128,0.432,166.7,166.7,-0.04,0.0,0.02,0.526,0.497,0.154,0.0,0.0,12.8878689,77.6430041,1003.4825527075438,337.6730798232039,0.3530394,0.5295591,137,0.137,255,0,1,1,125,True,0,0,-0.0,0.0,0.05692961470497619,0.043393223116590274,0.07158179128034745
2026-03-17T09:20:50.028505+00:00,1773739250.028380,True,True,GPS_RAW_INT,105048000,105135,4,21,0.6,0.96,12.8878704,77.6430081,951.89,865.291,-0.052,0.05,0.0971922,0.18000000000000002,166.7,166.7,-0.04,0.0,0.02,0.525,0.496,0.159,0.0,0.0,12.8878689,77.6430041,1003.5199556009883,337.67956425077955,0.50013915,0.57859235,135,0.135,255,0,1,1,125,True,0,0,-0.0,0.0,0.07631559608280211,0.047505123008232286,0.08989330852460978
2026-03-17T09:20:50.128566+00:00,1773739250.128458,True,True,GPS_RAW_INT,105048000,105235,4,21,0.6,0.96,12.8878704,77.6430081,951.89,865.291,-0.051,0.05,0.0971922,0.18000000000000002,166.7,166.7,-0.04,0.0,0.02,0.525,0.496,0.159,0.0,0.0,12.8878689,77.6430041,1003.4251602874253,337.6827659333529,0.5295591,0.65704555,136,0.136,255,0,1,1,125,True,0,0,-0.0,0.0,0.09161138597944557,0.05376187649421209,0.10622139805733057
2026-03-17T09:20:50.228613+00:00,1773739250.228532,True,True,GPS_RAW_INT,105248000,105335,4,21,0.6,0.96,12.8878703,77.6430081,951.88,865.281,-0.05,0.03,0.05831532,0.108,166.7,166.7,-0.04,0.0,0.02,0.524,0.496,0.139,0.0,0.0,12.8878689,77.6430041,1003.3899657508908,337.68540004355737,0.46091255,0.63743225,137,0.137,255,0,1,1,125,True,0,0,-0.0,0.0,0.09660618817031366,0.05806112021925344,0.11271135379327431
2026-03-17T09:20:50.328686+00:00,1773739250.328609,True,True,GPS_RAW_INT,105248000,105435,4,21,0.6,0.96,12.8878703,77.6430081,951.88,865.281,-0.05,0.03,0.05831532,0.108,166.7,166.7,-0.04,0.0,0.02,0.524,0.496,0.139,0.0,0.0,12.8878689,77.6430041,1003.3390739064555,337.68872695125356,0.392266,0.61781895,136,0.136,255,0,1,1,125,True,0,0,-0.0,0.0,0.09532302621283731,0.0611678455630766,0.11326069334593382
2026-03-17T09:20:50.428757+00:00,1773739250.428683,True,True,GPS_RAW_INT,105448000,105535,4,21,0.6,0.96,12.8878704,77.6430081,951.89,865.29,-0.048,0.07,0.13606908,0.25200000000000006,166.7,166.7,-0.04,0.0,0.02,0.524,0.495,0.154,0.0,0.0,12.8878689,77.6430041,1003.2146044596409,337.6899898895374,0.2941995,0.4903325,138,0.138,255,0,1,1,126,True,0,0,-0.0,0.0,0.08605450466426168,0.05813883126348454,0.10385326896008311
2026-03-17T09:20:50.528827+00:00,1773739250.528755,True,True,GPS_RAW_INT,105448000,105635,4,21,0.6,0.96,12.8878704,77.6430081,951.89,865.29,-0.048,0.07,0.13606908,0.25200000000000006,166.7,166.7,-0.04,0.0,0.02,0.524,0.495,0.154,0.0,0.0,12.8878689,77.6430041,1003.3019126664585,337.69126672328525,0.24516625,0.28439285000000003,138,0.138,255,0,1,1,125,True,0,0,-0.0,0.0,0.07286954988317751,0.04580737909138145,0.0860714080249558
2026-03-17T09:20:50.629202+00:00,1773739250.628898,True,True,GPS_RAW_INT,105648000,105735,4,21,0.6,0.96,12.8878703,77.6430083,951.89,865.291,-0.047,0.05,0.0971922,0.18000000000000002,166.7,166.7,-0.04,0.0,0.02,0.523,0.495,0.143,0.0,0.0,12.8878689,77.6430041,1003.420623599368,337.6966309884135,0.2157463,0.30400615,140,0.14,255,0,1,1,127,True,0,0,-0.0,0.0,0.06363304261348268,0.04008544565250083,0.07520642968130385
2026-03-17T09:20:50.729232+00:00,1773739250.729024,True,True,GPS_RAW_INT,105648000,105835,4,21,0.6,0.96,12.8878703,77.6430083,951.89,865.291,-0.047,0.05,0.0971922,0.18000000000000002,166.7,166.7,-0.04,0.0,0.03,0.523,0.495,0.143,0.0,0.0,12.8878689,77.6430041,1003.132679322032,337.7045541374375,0.14709975,0.26477955,138,0.138,255,0,1,1,126,True,0,0,-0.0,0.0,0.05321445902361528,0.03597285363939969,0.06423258400638808
